[
 {
  "name": "Westport",
  "slug": "westport-wa",
  "lat": 46.9024,
  "lng": -124.1092,
  "region": "Pacific Northwest",
  "country": "US",
  "break_type": "beach",
  "swan_enabled": false,
  "timezone": "America/Los_Angeles",
  "description": "Washington's surf capital. Jetty creates consistent sandbars. Cold, powerful, remote.",
  "skill_minimum": "intermediate"
 },
 {
  "name": "Seaside (The Point)",
  "slug": "seaside-or",
  "lat": 45.9934,
  "lng": -123.93,
  "region": "Pacific Northwest",
  "country": "US",
  "break_type": "beach",
  "swan_enabled": false,
  "timezone": "America/Los_Angeles",
  "description": "Oregon's most popular surf town. Protected right-hand point at the turnaround. Consistent and crowded.",
  "skill_minimum": "beginner"
 },
 {
  "name": "Short Sands (Oswald West)",
  "slug": "short-sands-or",
  "lat": 45.7638,
  "lng": -123.9704,
  "region": "Pacific Northwest",
  "country": "US",
  "break_type": "beach",
  "swan_enabled": false,
  "timezone": "America/Los_Angeles",
  "description": "Oregon's gem, tucked inside Oswald West State Park. Sheltered cove, hike-in, old-growth vibe.",
  "skill_minimum": "beginner"
 },
 {
  "name": "Pacific City (Cape Kiwanda)",
  "slug": "pacific-city-or",
  "lat": 45.2163,
  "lng": -123.9631,
  "region": "Pacific Northwest",
  "country": "US",
  "break_type": "beach",
  "swan_enabled": false,
  "timezone": "America/Los_Angeles",
  "description": "Dramatic haystack rock backdrop. Dory fleet launches through the surf. Hollow beachbreak peaks.",
  "skill_minimum": "intermediate"
 },
 {
  "name": "Crescent City",
  "slug": "crescent-city-ca",
  "lat": 41.7559,
  "lng": -124.199,
  "region": "Northern California",
  "country": "US",
  "break_type": "beach",
  "swan_enabled": false,
  "timezone": "America/Los_Angeles",
  "description": "Far NorCal beachbreak in the shadow of the redwoods. Cold, uncrowded, raw.",
  "skill_minimum": "intermediate"
 },
 {
  "name": "Mavericks",
  "slug": "mavericks-ca",
  "lat": 37.4941,
  "lng": -122.5016,
  "region": "Northern California",
  "country": "US",
  "break_type": "reef",
  "secondary_buoy_id": "46026",
  "swan_enabled": false,
  "timezone": "America/Los_Angeles",
  "description": "World-famous big wave break. Needs serious NW groundswell to light up. Reef bottom.",
  "skill_minimum": "pro"
 },
 {
  "name": "Ocean Beach",
  "slug": "ocean-beach-sf-ca",
  "lat": 37.7609,
  "lng": -122.5109,
  "region": "Northern California",
  "country": "US",
  "break_type": "beach",
  "swan_enabled": false,
  "timezone": "America/Los_Angeles",
  "description": "San Francisco's main break. Heavy, powerful beachbreak. Rips and fog are the vibe.",
  "skill_minimum": "advanced",
  "cams": [
   {
    "label": "North OB",
    "type": "iframe",
    "embed_id": "https://embed.cdn-surfline.com/cam/5d9bd4c1aadd6d60def73b30.html",
    "angle": "Looking W"
   }
  ]
 },
 {
  "name": "Fort Point",
  "slug": "fort-point-sf-ca",
  "lat": 37.8106,
  "lng": -122.4776,
  "region": "Northern California",
  "country": "US",
  "break_type": "reef",
  "swan_enabled": false,
  "timezone": "America/Los_Angeles",
  "description": "Wedging left under the Golden Gate Bridge. Iconic backdrop, needs solid NW groundswell.",
  "skill_minimum": "advanced"
 },
 {
  "name": "Bolinas",
  "slug": "bolinas-ca",
  "lat": 37.9091,
  "lng": -122.7124,
  "region": "Northern California",
  "country": "US",
  "break_type": "beach",
  "swan_enabled": false,
  "timezone": "America/Los_Angeles",
  "description": "Tucked-away NorCal gem. Locals keep the sign down for a reason. Sandbar peaks.",
  "skill_minimum": "intermediate"
 },
 {
  "name": "Pacifica",
  "slug": "pacifica-ca",
  "lat": 37.613,
  "lng": -122.4934,
  "region": "Northern California",
  "country": "US",
  "break_type": "beach",
  "swan_enabled": false,
  "timezone": "America/Los_Angeles",
  "description": "Linda Mar beach break just south of SF. More sheltered than OB. Good all-skill spot.",
  "skill_minimum": "beginner"
 },
 {
  "name": "Steamer Lane",
  "slug": "steamer-lane-ca",
  "lat": 36.9524,
  "lng": -122.0265,
  "region": "Northern California",
  "country": "US",
  "break_type": "reef",
  "swan_enabled": false,
  "timezone": "America/Los_Angeles",
  "description": "Santa Cruz's iconic point break. Consistent NW swell with kelp-padded rights.",
  "skill_minimum": "intermediate",
  "cams": [
   {
    "label": "Main Peak",
    "type": "iframe",
    "embed_id": "https://embed.cdn-surfline.com/cam/5834a0e63421b20545c4b58b.html",
    "angle": "Looking NW"
   }
  ]
 },
 {
  "name": "Pleasure Point",
  "slug": "pleasure-point-ca",
  "lat": 36.9611,
  "lng": -121.9742,
  "region": "Northern California",
  "country": "US",
  "break_type": "reef",
  "swan_enabled": false,
  "timezone": "America/Los_Angeles",
  "description": "Mellow right-hand reef steps down from 38th Ave to Privates. Perfect longboard wave.",
  "skill_minimum": "beginner"
 },
 {
  "name": "Pismo Beach",
  "slug": "pismo-beach-ca",
  "lat": 35.1422,
  "lng": -120.6413,
  "region": "Central California",
  "country": "US",
  "break_type": "beach",
  "swan_enabled": false,
  "timezone": "America/Los_Angeles",
  "description": "Central Coast beach break between creamy sand dunes. Fun peaks, clam chowder after.",
  "skill_minimum": "beginner"
 },
 {
  "name": "Rincon",
  "slug": "rincon-ca",
  "lat": 34.3724,
  "lng": -119.4755,
  "region": "Southern California",
  "country": "US",
  "break_type": "point",
  "swan_enabled": false,
  "timezone": "America/Los_Angeles",
  "description": "The Queen of the Coast. Perfect right-hand point. Needs straight W or NW swell.",
  "skill_minimum": "intermediate"
 },
 {
  "name": "C Street (Ventura)",
  "slug": "c-street-ca",
  "lat": 34.2748,
  "lng": -119.304,
  "region": "Southern California",
  "country": "US",
  "break_type": "point",
  "swan_enabled": false,
  "timezone": "America/Los_Angeles",
  "description": "Ventura's long right-hand point. Mellow and user-friendly. Great longboard wave.",
  "skill_minimum": "beginner"
 },
 {
  "name": "Malibu (Surfrider Beach)",
  "slug": "malibu-ca",
  "lat": 34.0343,
  "lng": -118.6784,
  "region": "Southern California",
  "country": "US",
  "break_type": "point",
  "swan_enabled": false,
  "timezone": "America/Los_Angeles",
  "description": "The birthplace of California surf culture. Three points, noseride machines. Always crowded.",
  "skill_minimum": "beginner",
  "cams": [
   {
    "label": "Third Point",
    "type": "iframe",
    "embed_id": "https://embed.cdn-surfline.com/cam/58349c25e411dc743a5d52ae.html",
    "angle": "Looking SE"
   }
  ]
 },
 {
  "name": "El Porto",
  "slug": "el-porto-ca",
  "lat": 33.9047,
  "lng": -118.4212,
  "region": "Southern California",
  "country": "US",
  "break_type": "beach",
  "swan_enabled": false,
  "timezone": "America/Los_Angeles",
  "description": "Manhattan Beach's north end. LA's most consistent beachbreak. Works all year.",
  "skill_minimum": "beginner"
 },
 {
  "name": "Huntington Beach Pier",
  "slug": "huntington-beach-ca",
  "lat": 33.655,
  "lng": -118.002,
  "region": "Southern California",
  "country": "US",
  "break_type": "beach",
  "swan_enabled": false,
  "timezone": "America/Los_Angeles",
  "description": "Surf City USA. Reliable beachbreak both sides of the pier. US Open venue.",
  "skill_minimum": "beginner",
  "cams": [
   {
    "label": "Pier North",
    "type": "iframe",
    "embed_id": "https://embed.cdn-surfline.com/cam/583499c4e411dc743a5d5296.html",
    "angle": "Looking S"
   }
  ]
 },
 {
  "name": "The Wedge",
  "slug": "the-wedge-ca",
  "lat": 33.5935,
  "lng": -117.8826,
  "region": "Southern California",
  "country": "US",
  "break_type": "beach",
  "swan_enabled": false,
  "timezone": "America/Los_Angeles",
  "description": "Newport's freak show shorebreak. Jetty reflection creates massive wedging peaks. Bodysurfer heaven.",
  "skill_minimum": "advanced"
 },
 {
  "name": "Lower Trestles",
  "slug": "lower-trestles-ca",
  "lat": 33.3849,
  "lng": -117.5897,
  "region": "Southern California",
  "country": "US",
  "break_type": "reef",
  "swan_enabled": false,
  "timezone": "America/Los_Angeles",
  "description": "World-class cobblestone reef. CT stop. Works on S swells in summer, NW in winter.",
  "skill_minimum": "intermediate"
 },
 {
  "name": "Grandview Beach",
  "slug": "grandview-encinitas-ca",
  "lat": 33.0696,
  "lng": -117.3003,
  "region": "Southern California",
  "country": "US",
  "break_type": "reef",
  "swan_enabled": false,
  "timezone": "America/Los_Angeles",
  "description": "Encinitas reef at the north end of Leucadia. Staircase access, less crowded than Swamis.",
  "skill_minimum": "intermediate"
 },
 {
  "name": "Swamis",
  "slug": "swamis-ca",
  "lat": 33.0364,
  "lng": -117.2921,
  "region": "Southern California",
  "country": "US",
  "break_type": "reef",
  "swan_enabled": false,
  "timezone": "America/Los_Angeles",
  "description": "Encinitas reef point below the Self-Realization Fellowship. Long, walling rights.",
  "skill_minimum": "intermediate"
 },
 {
  "name": "Pipes (Encinitas)",
  "slug": "pipes-encinitas-ca",
  "lat": 33.0558,
  "lng": -117.2959,
  "region": "Southern California",
  "country": "US",
  "break_type": "reef",
  "swan_enabled": false,
  "timezone": "America/Los_Angeles",
  "description": "Mid-Encinitas reef between Grandview and Swamis. Hollow, punchy peaks on the right swell.",
  "skill_minimum": "intermediate"
 },
 {
  "name": "Cardiff Reef",
  "slug": "cardiff-reef-ca",
  "lat": 33.0167,
  "lng": -117.2887,
  "region": "Southern California",
  "country": "US",
  "break_type": "reef",
  "swan_enabled": false,
  "timezone": "America/Los_Angeles",
  "description": "San Elijo reef break in Cardiff. Fun rights and lefts over cobblestone. Parking lot social scene.",
  "skill_minimum": "beginner"
 },
 {
  "name": "Windansea",
  "slug": "windansea-ca",
  "lat": 32.8316,
  "lng": -117.2773,
  "region": "Southern California",
  "country": "US",
  "break_type": "reef",
  "swan_enabled": false,
  "timezone": "America/Los_Angeles",
  "description": "La Jolla's most classic reef. Notorious locals, thatched shack, excellent rights and lefts.",
  "skill_minimum": "intermediate"
 },
 {
  "name": "Blacks Beach",
  "slug": "blacks-beach-ca",
  "lat": 32.8848,
  "lng": -117.2553,
  "region": "Southern California",
  "country": "US",
  "break_type": "reef",
  "swan_enabled": false,
  "timezone": "America/Los_Angeles",
  "description": "La Jolla's powerful reef. Hike-in. Best in long-period NW or WNW swells.",
  "skill_minimum": "advanced"
 },
 {
  "name": "Pipeline",
  "slug": "pipeline-oahu-hi",
  "lat": 21.6645,
  "lng": -158.0528,
  "region": "Hawaii",
  "country": "US",
  "break_type": "reef",
  "swan_enabled": false,
  "timezone": "Pacific/Honolulu",
  "description": "The most dangerous wave on earth. Phase 2 only \u2014 needs additional offshore buoy data.",
  "skill_minimum": "pro",
  "cams": [
   {
    "label": "Pipeline",
    "type": "iframe",
    "embed_id": "https://embed.cdn-surfline.com/cam/58349eed3421b20545c4b56c.html",
    "angle": "Looking NW"
   }
  ]
 },
 {
  "name": "Sunset Beach",
  "slug": "sunset-beach-oahu-hi",
  "lat": 21.6784,
  "lng": -158.0418,
  "region": "Hawaii",
  "country": "US",
  "break_type": "reef",
  "swan_enabled": false,
  "timezone": "Pacific/Honolulu",
  "description": "North Shore's biggest consistent break. Unpredictable peaks across a vast reef. Triple crown venue.",
  "skill_minimum": "pro"
 },
 {
  "name": "Waimea Bay",
  "slug": "waimea-bay-oahu-hi",
  "lat": 21.6414,
  "lng": -158.0649,
  "region": "Hawaii",
  "country": "US",
  "break_type": "reef",
  "swan_enabled": false,
  "timezone": "Pacific/Honolulu",
  "description": "The Bay only breaks over 20ft. When it does, the world watches. The Eddie is held here.",
  "skill_minimum": "pro"
 },
 {
  "name": "Honolua Bay",
  "slug": "honolua-bay-maui-hi",
  "lat": 21.0155,
  "lng": -156.6388,
  "region": "Hawaii",
  "country": "US",
  "break_type": "reef",
  "swan_enabled": false,
  "timezone": "Pacific/Honolulu",
  "description": "Maui's crown jewel. Deep-water right-hand point. Perfectly shaped walls when NW swells arrive.",
  "skill_minimum": "advanced"
 },
 {
  "name": "Pe'ahi (Jaws)",
  "slug": "jaws-maui-hi",
  "lat": 20.9386,
  "lng": -156.3116,
  "region": "Hawaii",
  "country": "US",
  "break_type": "reef",
  "swan_enabled": false,
  "timezone": "Pacific/Honolulu",
  "description": "Maui's tow-in big wave. Masts of water. Only breaks a handful of times per year.",
  "skill_minimum": "pro"
 },
 {
  "name": "Nantucket (Cisco Beach)",
  "slug": "cisco-beach-nantucket-ma",
  "lat": 41.238,
  "lng": -70.1381,
  "region": "East Coast",
  "country": "US",
  "break_type": "beach",
  "swan_enabled": false,
  "timezone": "America/New_York",
  "description": "Exposed south-facing beach picks up more swell than anywhere in New England. Remote and wild.",
  "skill_minimum": "intermediate"
 },
 {
  "name": "Narragansett Town Beach",
  "slug": "narragansett-ri",
  "lat": 41.4268,
  "lng": -71.4573,
  "region": "East Coast",
  "country": "US",
  "break_type": "beach",
  "swan_enabled": false,
  "timezone": "America/New_York",
  "description": "New England's most consistent break. Classic shore pound, fun beachbreak, gets good in fall.",
  "skill_minimum": "beginner"
 },
 {
  "name": "Montauk (Ditch Plains)",
  "slug": "montauk-ny",
  "lat": 41.0534,
  "lng": -71.9566,
  "region": "East Coast",
  "country": "US",
  "break_type": "point",
  "swan_enabled": false,
  "timezone": "America/New_York",
  "description": "The end of Long Island. Ditch Plains and beyond. Best in fall hurricane swell.",
  "skill_minimum": "beginner"
 },
 {
  "name": "Rockaway Beach",
  "slug": "rockaway-beach-ny",
  "lat": 40.5802,
  "lng": -73.8348,
  "region": "East Coast",
  "country": "US",
  "break_type": "beach",
  "swan_enabled": false,
  "timezone": "America/New_York",
  "description": "NYC's surf break. Subway-accessible, surprisingly good in fall swells. Summer crowds ease off by September.",
  "skill_minimum": "beginner"
 },
 {
  "name": "Manasquan Inlet",
  "slug": "manasquan-inlet-nj",
  "lat": 40.1019,
  "lng": -74.0328,
  "region": "East Coast",
  "country": "US",
  "break_type": "jetty",
  "swan_enabled": false,
  "timezone": "America/New_York",
  "description": "Jersey Shore's best break. Jetty-induced sandbars on both sides. Epic in NE groundswell.",
  "skill_minimum": "intermediate"
 },
 {
  "name": "Indian River Inlet",
  "slug": "indian-river-inlet-de",
  "lat": 38.6102,
  "lng": -75.0704,
  "region": "East Coast",
  "country": "US",
  "break_type": "jetty",
  "swan_enabled": false,
  "timezone": "America/New_York",
  "description": "Delaware's best and only real surf spot. Jetty creates consistent peaks. Mid-Atlantic gem.",
  "skill_minimum": "intermediate"
 },
 {
  "name": "Ocean City (Inlet)",
  "slug": "ocean-city-md",
  "lat": 38.3284,
  "lng": -75.0849,
  "region": "East Coast",
  "country": "US",
  "break_type": "beach",
  "swan_enabled": false,
  "timezone": "America/New_York",
  "description": "Maryland's surf town. Inlet jetty creates the best sandbars. Best in fall nor'easters.",
  "skill_minimum": "beginner"
 },
 {
  "name": "Virginia Beach",
  "slug": "virginia-beach-va",
  "lat": 36.8508,
  "lng": -75.9779,
  "region": "East Coast",
  "country": "US",
  "break_type": "beach",
  "swan_enabled": false,
  "timezone": "America/New_York",
  "description": "Mid-Atlantic beachbreak. Best in fall with NE groundswells from nor'easters and hurricanes.",
  "skill_minimum": "beginner"
 },
 {
  "name": "Kitty Hawk",
  "slug": "kitty-hawk-nc",
  "lat": 36.0637,
  "lng": -75.7131,
  "region": "East Coast",
  "country": "US",
  "break_type": "beach",
  "swan_enabled": false,
  "timezone": "America/New_York",
  "description": "Northern Outer Banks beach break. The Wright Brothers flew here for good reason \u2014 consistent wind.",
  "skill_minimum": "beginner"
 },
 {
  "name": "Kill Devil Hills",
  "slug": "kill-devil-hills-nc",
  "lat": 35.9957,
  "lng": -75.6574,
  "region": "East Coast",
  "country": "US",
  "break_type": "beach",
  "swan_enabled": false,
  "timezone": "America/New_York",
  "description": "Central Outer Banks. Multiple beach access points, fun peaks. Gets solid in hurricane season.",
  "skill_minimum": "beginner"
 },
 {
  "name": "Nags Head Pier",
  "slug": "nags-head-nc",
  "lat": 35.9541,
  "lng": -75.6248,
  "region": "East Coast",
  "country": "US",
  "break_type": "beach",
  "swan_enabled": false,
  "timezone": "America/New_York",
  "description": "OBX hub. Sandbars around Jennette's Pier. The most consistent peaks on the northern Banks.",
  "skill_minimum": "beginner",
  "cams": [
   {
    "label": "Avon Pier",
    "type": "iframe",
    "embed_id": "https://embed.cdn-surfline.com/cam/5f7df79fbf651266dc4ad114.html",
    "angle": "Looking S"
   }
  ]
 },
 {
  "name": "Rodanthe (S-Turns)",
  "slug": "rodanthe-nc",
  "lat": 35.5913,
  "lng": -75.4636,
  "region": "East Coast",
  "country": "US",
  "break_type": "beach",
  "swan_enabled": false,
  "timezone": "America/New_York",
  "description": "Central OBX at the S-curves. Exposed to more swell than the northern Banks. Gets hollow.",
  "skill_minimum": "intermediate"
 },
 {
  "name": "Avon Pier",
  "slug": "avon-nc",
  "lat": 35.357,
  "lng": -75.495,
  "region": "East Coast",
  "country": "US",
  "break_type": "beach",
  "swan_enabled": false,
  "timezone": "America/New_York",
  "description": "South of the S-turns. Pier creates sandbars. Locals know it as the most consistent OBX peak.",
  "skill_minimum": "beginner"
 },
 {
  "name": "Cape Hatteras",
  "slug": "cape-hatteras-nc",
  "lat": 35.227,
  "lng": -75.5271,
  "region": "East Coast",
  "country": "US",
  "break_type": "beach",
  "swan_enabled": false,
  "timezone": "America/New_York",
  "description": "Graveyard of the Atlantic. Fickle but can be epic. NE swells + W winds = fire.",
  "skill_minimum": "intermediate",
  "cams": [
   {
    "label": "Lighthouse",
    "type": "iframe",
    "embed_id": "https://embed.cdn-surfline.com/cam/583496be3421b20545c4b528.html",
    "angle": "Looking E"
   }
  ]
 },
 {
  "name": "Folly Beach",
  "slug": "folly-beach-sc",
  "lat": 32.6554,
  "lng": -79.9403,
  "region": "East Coast",
  "country": "US",
  "break_type": "beach",
  "swan_enabled": false,
  "timezone": "America/New_York",
  "description": "Charleston's beach break. Small and fun on a good day. Hurricane swell turns it on.",
  "skill_minimum": "beginner"
 },
 {
  "name": "Tybee Island",
  "slug": "tybee-island-ga",
  "lat": 31.9996,
  "lng": -80.8438,
  "region": "East Coast",
  "country": "US",
  "break_type": "beach",
  "swan_enabled": false,
  "timezone": "America/New_York",
  "description": "Georgia's only real surf spot. Tiny by most standards, but locals love it. Hurricane swell required.",
  "skill_minimum": "beginner"
 },
 {
  "name": "Jacksonville Beach",
  "slug": "jacksonville-beach-fl",
  "lat": 30.284,
  "lng": -81.398,
  "region": "East Coast",
  "country": "US",
  "break_type": "beach",
  "swan_enabled": false,
  "timezone": "America/New_York",
  "description": "Northeast Florida's most consistent beach. Pier sandbars, warm water, active local scene.",
  "skill_minimum": "beginner"
 },
 {
  "name": "Cocoa Beach",
  "slug": "cocoa-beach-fl",
  "lat": 28.32,
  "lng": -80.6081,
  "region": "East Coast",
  "country": "US",
  "break_type": "beach",
  "swan_enabled": false,
  "timezone": "America/New_York",
  "description": "Space Coast surf. Ron Jon's backyard. Launches and landings visible from the lineup.",
  "skill_minimum": "beginner"
 },
 {
  "name": "New Smyrna Beach",
  "slug": "new-smyrna-beach-fl",
  "lat": 29.0258,
  "lng": -80.9273,
  "region": "East Coast",
  "country": "US",
  "break_type": "beach",
  "swan_enabled": false,
  "timezone": "America/New_York",
  "description": "Florida's most consistent beachbreak. Fun peaks, warm water, and the shark capital of the world.",
  "skill_minimum": "beginner"
 },
 {
  "name": "Sebastian Inlet",
  "slug": "sebastian-inlet-fl",
  "lat": 27.8625,
  "lng": -80.4494,
  "region": "East Coast",
  "country": "US",
  "break_type": "jetty",
  "swan_enabled": false,
  "timezone": "America/New_York",
  "description": "Florida's best wave. Jetty-assisted hollow right. Lights up during NE swells.",
  "skill_minimum": "intermediate",
  "cams": [
   {
    "label": "First Peak",
    "type": "iframe",
    "embed_id": "https://embed.cdn-surfline.com/cam/58a376f6c9d273fd4f581bef.html",
    "angle": "Looking N"
   }
  ]
 },
 {
  "name": "Jeffreys Bay",
  "slug": "jeffreys-bay-za",
  "lat": -34.0494,
  "lng": 24.9166,
  "region": "Eastern Cape",
  "country": "ZA",
  "break_type": "point",
  "swan_enabled": false,
  "timezone": "Africa/Johannesburg",
  "description": "Arguably the world's best right-hand point. Supertubes to Impossibles. CT stop.",
  "skill_minimum": "intermediate"
 },
 {
  "name": "Hossegor (La Gravi\u00e8re)",
  "slug": "hossegor-france",
  "lat": 43.6599,
  "lng": -1.4516,
  "region": "Nouvelle-Aquitaine",
  "country": "FR",
  "break_type": "beach",
  "swan_enabled": false,
  "timezone": "Europe/Paris",
  "description": "Europe's Pipeline. Deep sandbar funnels powerful Atlantic swells into thick, barreling peaks.",
  "skill_minimum": "advanced"
 },
 {
  "name": "Uluwatu",
  "slug": "uluwatu-bali-id",
  "lat": -8.8291,
  "lng": 115.0849,
  "region": "Bali",
  "country": "ID",
  "break_type": "reef",
  "swan_enabled": false,
  "timezone": "Asia/Makassar",
  "description": "Bali's crown jewel. Long left-hand reef below cliff temples. Works year-round.",
  "skill_minimum": "intermediate"
 },
 {
  "name": "Puerto Escondido",
  "slug": "puerto-escondido-mx",
  "lat": 15.8698,
  "lng": -97.0673,
  "region": "Oaxaca",
  "country": "MX",
  "break_type": "beach",
  "swan_enabled": false,
  "timezone": "America/Mexico_City",
  "description": "The Mexican Pipeline. Terrifying shorebreak on a steep sandbar. Can reach 30ft in summer.",
  "skill_minimum": "advanced"
 },
 {
  "name": "Pavones",
  "slug": "pavones-cr",
  "lat": 8.3876,
  "lng": -83.172,
  "region": "Puntarenas",
  "country": "CR",
  "break_type": "point",
  "swan_enabled": false,
  "timezone": "America/Costa_Rica",
  "description": "One of the longest left-hand point breaks on earth. Ride all the way to the river mouth.",
  "skill_minimum": "intermediate"
 },
 {
  "name": "Snapper Rocks",
  "slug": "snapper-rocks-au",
  "lat": -28.1671,
  "lng": 153.5468,
  "region": "Gold Coast",
  "country": "AU",
  "break_type": "reef",
  "swan_enabled": false,
  "timezone": "Australia/Brisbane",
  "description": "Start of the Superbank. Famed right-hander with long cobblestone point runs to Kirra.",
  "skill_minimum": "intermediate"
 },
 {
  "name": "Taghazout (Anchor Point)",
  "slug": "anchor-point-morocco",
  "lat": 30.5381,
  "lng": -9.7085,
  "region": "Souss-Massa",
  "country": "MA",
  "break_type": "point",
  "swan_enabled": false,
  "timezone": "Africa/Casablanca",
  "description": "Morocco's best right-hand point. Long walls, argan oil, cheap tagine. Europe's winter escape.",
  "skill_minimum": "intermediate"
 },
 {
  "name": "Cloudbreak",
  "slug": "cloudbreak-fiji",
  "lat": -17.963,
  "lng": 177.312,
  "region": "Mamanuca Islands",
  "country": "FJ",
  "break_type": "reef",
  "swan_enabled": false,
  "timezone": "Pacific/Fiji",
  "description": "Boat-access left-hand reef in the middle of the Pacific. Pristine barrels on a razor-sharp reef.",
  "skill_minimum": "advanced"
 },
 {
  "name": "Sunset Cliffs",
  "slug": "sunset-cliffs-ca",
  "lat": 32.7193,
  "lng": -117.2569,
  "region": "Southern California",
  "country": "US",
  "break_type": "reef",
  "swan_enabled": false,
  "timezone": "America/Los_Angeles",
  "description": "San Diego's dramatic reef-lined cliffs. Multiple spots from Garbage Beach to Abs. Swell-magnets.",
  "skill_minimum": "intermediate"
 },
 {
  "name": "Ocean Beach Pier (SD)",
  "slug": "ocean-beach-pier-ca",
  "lat": 32.748,
  "lng": -117.2557,
  "region": "Southern California",
  "country": "US",
  "break_type": "beach",
  "swan_enabled": false,
  "timezone": "America/Los_Angeles",
  "description": "San Diego's OB pier peaks. Consistent beach break, mellow crowd, easy parking.",
  "skill_minimum": "beginner"
 },
 {
  "name": "Pacific Beach Shore",
  "slug": "pacific-beach-ca",
  "lat": 32.793,
  "lng": -117.253,
  "region": "Southern California",
  "country": "US",
  "break_type": "beach",
  "swan_enabled": false,
  "timezone": "America/Los_Angeles",
  "description": "PB's boardwalk beach. Mellow, social scene. Good learner wave in summer S swells.",
  "skill_minimum": "beginner"
 },
 {
  "name": "Mission Beach",
  "slug": "mission-beach-ca",
  "lat": 32.77,
  "lng": -117.2536,
  "region": "Southern California",
  "country": "US",
  "break_type": "beach",
  "swan_enabled": false,
  "timezone": "America/Los_Angeles",
  "description": "Classic San Diego beach town break. Fun summer peaks, crowded on weekends.",
  "skill_minimum": "beginner"
 },
 {
  "name": "Oceanside Harbor",
  "slug": "oceanside-harbor-ca",
  "lat": 33.2193,
  "lng": -117.4004,
  "region": "Southern California",
  "country": "US",
  "break_type": "jetty",
  "swan_enabled": false,
  "timezone": "America/Los_Angeles",
  "description": "North San Diego County jetty break. Harbor mouth sandbars produce hollow rights.",
  "skill_minimum": "intermediate"
 },
 {
  "name": "San Onofre State Beach",
  "slug": "san-onofre-ca",
  "lat": 33.372,
  "lng": -117.564,
  "region": "Southern California",
  "country": "US",
  "break_type": "beach",
  "swan_enabled": false,
  "timezone": "America/Los_Angeles",
  "description": "Old Man's, Dog Patch, and Trail 1. Classic longboard hang-ten vibes below the nuclear plant.",
  "skill_minimum": "beginner"
 },
 {
  "name": "Salt Creek",
  "slug": "salt-creek-ca",
  "lat": 33.476,
  "lng": -117.7295,
  "region": "Southern California",
  "country": "US",
  "break_type": "reef",
  "swan_enabled": false,
  "timezone": "America/Los_Angeles",
  "description": "Dana Point's best reef. Consistent right-hand point, excellent in S swells. Ritz Carlton backdrop.",
  "skill_minimum": "intermediate"
 },
 {
  "name": "Brooks Street",
  "slug": "brooks-street-ca",
  "lat": 33.5413,
  "lng": -117.7934,
  "region": "Southern California",
  "country": "US",
  "break_type": "reef",
  "swan_enabled": false,
  "timezone": "America/Los_Angeles",
  "description": "Laguna Beach reef. Mellow right-hander, good longboard wave. Classic SoCal scene.",
  "skill_minimum": "beginner"
 },
 {
  "name": "54th Street Newport",
  "slug": "54th-street-ca",
  "lat": 33.612,
  "lng": -117.925,
  "region": "Southern California",
  "country": "US",
  "break_type": "beach",
  "swan_enabled": false,
  "timezone": "America/Los_Angeles",
  "description": "Newport Beach mid-peninsula. Fun beachbreak peak, less crowded than the Pier.",
  "skill_minimum": "beginner"
 },
 {
  "name": "Seal Beach Pier",
  "slug": "seal-beach-pier-ca",
  "lat": 33.7395,
  "lng": -118.1059,
  "region": "Southern California",
  "country": "US",
  "break_type": "beach",
  "swan_enabled": false,
  "timezone": "America/Los_Angeles",
  "description": "OC's northernmost pier break. Small but fun. Locals-only vibe in a sleepy beach town.",
  "skill_minimum": "beginner"
 },
 {
  "name": "Redondo Breakwall",
  "slug": "redondo-breakwall-ca",
  "lat": 33.8456,
  "lng": -118.399,
  "region": "Southern California",
  "country": "US",
  "break_type": "jetty",
  "swan_enabled": false,
  "timezone": "America/Los_Angeles",
  "description": "Breakwall-induced peaks in the South Bay. Fun left-handers on SSW swells.",
  "skill_minimum": "beginner"
 },
 {
  "name": "Venice Beach",
  "slug": "venice-beach-ca",
  "lat": 33.985,
  "lng": -118.4695,
  "region": "Southern California",
  "country": "US",
  "break_type": "beach",
  "swan_enabled": false,
  "timezone": "America/Los_Angeles",
  "description": "LA's iconic beach. Muscle Beach, boardwalk circus, and occasional fun surf. People-watching paradise.",
  "skill_minimum": "beginner"
 },
 {
  "name": "Zuma Beach",
  "slug": "zuma-beach-ca",
  "lat": 34.0153,
  "lng": -118.822,
  "region": "Southern California",
  "country": "US",
  "break_type": "beach",
  "swan_enabled": false,
  "timezone": "America/Los_Angeles",
  "description": "Malibu's big beach. Multiple peaks across a long stretch. Works on bigger NW swells.",
  "skill_minimum": "beginner"
 },
 {
  "name": "Leo Carrillo State Park",
  "slug": "leo-carrillo-ca",
  "lat": 34.0477,
  "lng": -118.9361,
  "region": "Southern California",
  "country": "US",
  "break_type": "point",
  "swan_enabled": false,
  "timezone": "America/Los_Angeles",
  "description": "Ventura County line point break. Rock reef and sand combo. Fun right-handers camping adjacent.",
  "skill_minimum": "beginner"
 },
 {
  "name": "Emma Wood",
  "slug": "emma-wood-ca",
  "lat": 34.303,
  "lng": -119.3608,
  "region": "Southern California",
  "country": "US",
  "break_type": "beach",
  "swan_enabled": false,
  "timezone": "America/Los_Angeles",
  "description": "Ventura rivermouth beachbreak. Sandbars shift with river discharge. Consistent and fun.",
  "skill_minimum": "beginner"
 },
 {
  "name": "Poche Beach",
  "slug": "poche-beach-ca",
  "lat": 33.423,
  "lng": -117.649,
  "region": "Southern California",
  "country": "US",
  "break_type": "beach",
  "swan_enabled": false,
  "timezone": "America/Los_Angeles",
  "description": "San Clemente beachbreak north of Trestles. Low-key peaks, easy access, consistent in summer S swells.",
  "skill_minimum": "beginner"
 },
 {
  "name": "Avila Beach",
  "slug": "avila-beach-ca",
  "lat": 35.1794,
  "lng": -120.731,
  "region": "Central California",
  "country": "US",
  "break_type": "beach",
  "swan_enabled": false,
  "timezone": "America/Los_Angeles",
  "description": "Protected Central Coast cove. Mellow waves, warm microclimate, pier-to-pier peaks.",
  "skill_minimum": "beginner"
 },
 {
  "name": "Morro Bay",
  "slug": "morro-bay-ca",
  "lat": 35.3658,
  "lng": -120.8606,
  "region": "Central California",
  "country": "US",
  "break_type": "beach",
  "swan_enabled": false,
  "timezone": "America/Los_Angeles",
  "description": "Central Coast beachbreak in the shadow of Morro Rock. Consistent NW swell, cold water, sea otters.",
  "skill_minimum": "intermediate"
 },
 {
  "name": "Backdoor Pipeline",
  "slug": "backdoor-oahu-hi",
  "lat": 21.6651,
  "lng": -158.0534,
  "region": "Hawaii",
  "country": "US",
  "break_type": "reef",
  "swan_enabled": false,
  "timezone": "Pacific/Honolulu",
  "description": "Pipeline's right-hand sibling. Spits harder, breaks shallower. Same reef, opposite direction.",
  "skill_minimum": "pro"
 },
 {
  "name": "Off the Wall",
  "slug": "off-the-wall-oahu-hi",
  "lat": 21.6636,
  "lng": -158.05,
  "region": "Hawaii",
  "country": "US",
  "break_type": "reef",
  "swan_enabled": false,
  "timezone": "Pacific/Honolulu",
  "description": "Shallow reef directly in front of the famous house. Powerful, hollow right-handers.",
  "skill_minimum": "advanced"
 },
 {
  "name": "Rocky Point",
  "slug": "rocky-point-oahu-hi",
  "lat": 21.6624,
  "lng": -158.0465,
  "region": "Hawaii",
  "country": "US",
  "break_type": "reef",
  "swan_enabled": false,
  "timezone": "Pacific/Honolulu",
  "description": "Fun North Shore reef between Pipe and Sunset. Rights and lefts on mixed reef/sand.",
  "skill_minimum": "intermediate"
 },
 {
  "name": "Velzyland",
  "slug": "velzyland-oahu-hi",
  "lat": 21.6823,
  "lng": -158.0316,
  "region": "Hawaii",
  "country": "US",
  "break_type": "reef",
  "swan_enabled": false,
  "timezone": "Pacific/Honolulu",
  "description": "East end North Shore. Punchy, hollow right-handers. Less crowded than the main breaks.",
  "skill_minimum": "advanced"
 },
 {
  "name": "Laniakea",
  "slug": "laniakea-oahu-hi",
  "lat": 21.6309,
  "lng": -158.0864,
  "region": "Hawaii",
  "country": "US",
  "break_type": "reef",
  "swan_enabled": false,
  "timezone": "Pacific/Honolulu",
  "description": "Turtle Beach point. Long right-hand walls, sea turtles in the lineup. Popular but spread out.",
  "skill_minimum": "intermediate"
 },
 {
  "name": "Haleiwa",
  "slug": "haleiwa-oahu-hi",
  "lat": 21.5953,
  "lng": -158.1046,
  "region": "Hawaii",
  "country": "US",
  "break_type": "reef",
  "swan_enabled": false,
  "timezone": "Pacific/Honolulu",
  "description": "Ali'i Beach Park reef. Triple Crown venue. Rights and lefts over varied reef sections.",
  "skill_minimum": "advanced"
 },
 {
  "name": "Ala Moana Bowls",
  "slug": "ala-moana-bowls-oahu-hi",
  "lat": 21.2901,
  "lng": -157.8541,
  "region": "Hawaii",
  "country": "US",
  "break_type": "reef",
  "swan_enabled": false,
  "timezone": "Pacific/Honolulu",
  "description": "Honolulu's best reef. Perfect A-frame bowls on summer S swell. Classic shortboard wave.",
  "skill_minimum": "intermediate"
 },
 {
  "name": "Diamond Head",
  "slug": "diamond-head-oahu-hi",
  "lat": 21.2534,
  "lng": -157.8043,
  "region": "Hawaii",
  "country": "US",
  "break_type": "reef",
  "swan_enabled": false,
  "timezone": "Pacific/Honolulu",
  "description": "Right-hander below the crater. Long walls on S swell, excellent for intermediate surfers.",
  "skill_minimum": "intermediate"
 },
 {
  "name": "Sandy Beach",
  "slug": "sandy-beach-oahu-hi",
  "lat": 21.2978,
  "lng": -157.673,
  "region": "Hawaii",
  "country": "US",
  "break_type": "beach",
  "swan_enabled": false,
  "timezone": "Pacific/Honolulu",
  "description": "Oahu's boneyard. Powerful shorebreak snaps spines. Watch the locals before you paddle out.",
  "skill_minimum": "advanced"
 },
 {
  "name": "Makaha",
  "slug": "makaha-oahu-hi",
  "lat": 21.4735,
  "lng": -158.2186,
  "region": "Hawaii",
  "country": "US",
  "break_type": "reef",
  "swan_enabled": false,
  "timezone": "Pacific/Honolulu",
  "description": "West side big wave. Home of the Makaha International. Huge, grinding rights on W swell.",
  "skill_minimum": "advanced"
 },
 {
  "name": "Hookipa",
  "slug": "hookipa-maui-hi",
  "lat": 20.931,
  "lng": -156.334,
  "region": "Hawaii",
  "country": "US",
  "break_type": "reef",
  "swan_enabled": false,
  "timezone": "Pacific/Honolulu",
  "description": "Maui's windsurfing and surfing mecca. Powerful reef peaks. Sea turtles everywhere.",
  "skill_minimum": "advanced"
 },
 {
  "name": "Dumps (Maalaea)",
  "slug": "dumps-maui-hi",
  "lat": 20.7908,
  "lng": -156.51,
  "region": "Hawaii",
  "country": "US",
  "break_type": "reef",
  "swan_enabled": false,
  "timezone": "Pacific/Honolulu",
  "description": "Said to be the world's fastest wave. Short, insane right-hander through Maalaea harbor.",
  "skill_minimum": "advanced"
 },
 {
  "name": "La Perouse Bay",
  "slug": "la-perouse-maui-hi",
  "lat": 20.599,
  "lng": -156.436,
  "region": "Hawaii",
  "country": "US",
  "break_type": "reef",
  "swan_enabled": false,
  "timezone": "Pacific/Honolulu",
  "description": "South Maui lava field reef. Remote, pristine, powerful. Hike or drive the lava road.",
  "skill_minimum": "advanced"
 },
 {
  "name": "Banyans",
  "slug": "banyans-big-island-hi",
  "lat": 19.585,
  "lng": -155.976,
  "region": "Hawaii",
  "country": "US",
  "break_type": "reef",
  "swan_enabled": false,
  "timezone": "Pacific/Honolulu",
  "description": "Big Island's best reef. Long rights in Kona. Named for the banyan trees on the seawall.",
  "skill_minimum": "intermediate"
 },
 {
  "name": "Pine Trees",
  "slug": "pine-trees-big-island-hi",
  "lat": 19.729,
  "lng": -156.043,
  "region": "Hawaii",
  "country": "US",
  "break_type": "reef",
  "swan_enabled": false,
  "timezone": "Pacific/Honolulu",
  "description": "Kona coast reef with casuarina trees. Playful peaks, local favorite, accessible.",
  "skill_minimum": "intermediate"
 },
 {
  "name": "Hanalei Bay",
  "slug": "hanalei-bay-kauai-hi",
  "lat": 22.204,
  "lng": -159.499,
  "region": "Hawaii",
  "country": "US",
  "break_type": "beach",
  "swan_enabled": false,
  "timezone": "Pacific/Honolulu",
  "description": "Kauai's north shore bay. Multiple breaks across a stunning valley backdrop. Winter gets big.",
  "skill_minimum": "intermediate"
 },
 {
  "name": "Tunnels Beach",
  "slug": "tunnels-kauai-hi",
  "lat": 22.2212,
  "lng": -159.568,
  "region": "Hawaii",
  "country": "US",
  "break_type": "reef",
  "swan_enabled": false,
  "timezone": "Pacific/Honolulu",
  "description": "Makua reef, aka Tunnels. Outer reef breaks big in winter. Stunning Na Pali coast views.",
  "skill_minimum": "advanced"
 },
 {
  "name": "Pakala (Infinities)",
  "slug": "pakala-kauai-hi",
  "lat": 21.939,
  "lng": -159.654,
  "region": "Hawaii",
  "country": "US",
  "break_type": "reef",
  "swan_enabled": false,
  "timezone": "Pacific/Honolulu",
  "description": "Kauai's endless left. Rides of 500m on a good day. Walk the tracks in to find it.",
  "skill_minimum": "intermediate"
 },
 {
  "name": "Ruggles",
  "slug": "ruggles-ri",
  "lat": 41.412,
  "lng": -71.463,
  "region": "East Coast",
  "country": "US",
  "break_type": "reef",
  "swan_enabled": false,
  "timezone": "America/New_York",
  "description": "Rhode Island's heaving shore break reef. Dangerous, consequential, and the best RI has to offer.",
  "skill_minimum": "advanced"
 },
 {
  "name": "Charlestown Breachway",
  "slug": "charlestown-breachway-ri",
  "lat": 41.362,
  "lng": -71.644,
  "region": "East Coast",
  "country": "US",
  "break_type": "jetty",
  "swan_enabled": false,
  "timezone": "America/New_York",
  "description": "RI jetty break. Current-assisted peaks beside the breachway. Fun with W winds.",
  "skill_minimum": "intermediate"
 },
 {
  "name": "Bay Head",
  "slug": "bay-head-nj",
  "lat": 40.074,
  "lng": -74.045,
  "region": "East Coast",
  "country": "US",
  "break_type": "beach",
  "swan_enabled": false,
  "timezone": "America/New_York",
  "description": "South Jersey's best beachbreak town. Locals-only attitude, but worth the trip on NE groundswell.",
  "skill_minimum": "intermediate"
 },
 {
  "name": "Belmar 5th Ave",
  "slug": "belmar-nj",
  "lat": 40.178,
  "lng": -74.027,
  "region": "East Coast",
  "country": "US",
  "break_type": "beach",
  "swan_enabled": false,
  "timezone": "America/New_York",
  "description": "Jersey Shore staple. Consistent beachbreak, big surf scene, summer contests.",
  "skill_minimum": "beginner"
 },
 {
  "name": "Asbury Park",
  "slug": "asbury-park-nj",
  "lat": 40.22,
  "lng": -74.012,
  "region": "East Coast",
  "country": "US",
  "break_type": "beach",
  "swan_enabled": false,
  "timezone": "America/New_York",
  "description": "Springsteen country. Fun peaks north and south of the Stone Pony. Revived beach town energy.",
  "skill_minimum": "beginner"
 },
 {
  "name": "Ponce Inlet",
  "slug": "ponce-inlet-fl",
  "lat": 29.08,
  "lng": -80.927,
  "region": "East Coast",
  "country": "US",
  "break_type": "jetty",
  "swan_enabled": false,
  "timezone": "America/New_York",
  "description": "Inlet jetty south of New Smyrna. Sandbars both sides, concentrated swell energy.",
  "skill_minimum": "intermediate"
 },
 {
  "name": "K38 (Km 38)",
  "slug": "k38-baja-mx",
  "lat": 31.943,
  "lng": -116.73,
  "region": "Baja Norte",
  "country": "MX",
  "break_type": "point",
  "swan_enabled": false,
  "timezone": "America/Tijuana",
  "description": "Baja's most accessible point break. Right-hander over reef/sand. Good all skill levels.",
  "skill_minimum": "beginner"
 },
 {
  "name": "Islas de Todos Santos",
  "slug": "todos-santos-baja-mx",
  "lat": 31.796,
  "lng": -116.793,
  "region": "Baja Norte",
  "country": "MX",
  "break_type": "reef",
  "swan_enabled": false,
  "timezone": "America/Tijuana",
  "description": "Mexico's Mavericks. Boat-access island 20 miles south of Ensenada. Giant right-handers.",
  "skill_minimum": "pro"
 },
 {
  "name": "San Miguel",
  "slug": "san-miguel-baja-mx",
  "lat": 31.807,
  "lng": -116.694,
  "region": "Baja Norte",
  "country": "MX",
  "break_type": "reef",
  "swan_enabled": false,
  "timezone": "America/Tijuana",
  "description": "Ensenada's home break. Right-hand point break with cobblestone reef. Classic Baja.",
  "skill_minimum": "intermediate"
 },
 {
  "name": "Sayulita",
  "slug": "sayulita-mx",
  "lat": 20.868,
  "lng": -105.438,
  "region": "Nayarit",
  "country": "MX",
  "break_type": "beach",
  "swan_enabled": false,
  "timezone": "America/Bahia_Banderas",
  "description": "Hippie-chic Pacific Mexico town. Right-hand point plus beach peaks. Learn-to-surf capital.",
  "skill_minimum": "beginner"
 },
 {
  "name": "Punta de Mita",
  "slug": "punta-de-mita-mx",
  "lat": 20.771,
  "lng": -105.527,
  "region": "Nayarit",
  "country": "MX",
  "break_type": "reef",
  "swan_enabled": false,
  "timezone": "America/Bahia_Banderas",
  "description": "Riviera Nayarit point break. La Lancha and The Cove \u2014 excellent rights on SW swell.",
  "skill_minimum": "intermediate"
 },
 {
  "name": "Nexpa",
  "slug": "nexpa-mx",
  "lat": 18.125,
  "lng": -102.719,
  "region": "Michoacan",
  "country": "MX",
  "break_type": "rivermouth",
  "swan_enabled": false,
  "timezone": "America/Mexico_City",
  "description": "Mexican point break perfection. Long lefts off a rivermouth sandbar. Completely uncrowded.",
  "skill_minimum": "intermediate"
 },
 {
  "name": "Barra de la Cruz",
  "slug": "barra-de-la-cruz-mx",
  "lat": 15.747,
  "lng": -96.044,
  "region": "Oaxaca",
  "country": "MX",
  "break_type": "point",
  "swan_enabled": false,
  "timezone": "America/Mexico_City",
  "description": "WCT-quality right-hand point. Perfect walls on big S swell. Village life, no frills.",
  "skill_minimum": "intermediate"
 },
 {
  "name": "Tamarindo",
  "slug": "tamarindo-cr",
  "lat": 10.299,
  "lng": -85.839,
  "region": "Guanacaste",
  "country": "CR",
  "break_type": "beach",
  "swan_enabled": false,
  "timezone": "America/Costa_Rica",
  "description": "Costa Rica's most developed surf town. Multiple beach peaks, surf schools everywhere.",
  "skill_minimum": "beginner"
 },
 {
  "name": "Nosara (Playa Guiones)",
  "slug": "nosara-cr",
  "lat": 9.964,
  "lng": -85.653,
  "region": "Guanacaste",
  "country": "CR",
  "break_type": "beach",
  "swan_enabled": false,
  "timezone": "America/Costa_Rica",
  "description": "Pristine CR beach break. Yoga and surf capital. Consistent, fun peaks in a wildlife refuge.",
  "skill_minimum": "beginner"
 },
 {
  "name": "Dominical",
  "slug": "dominical-cr",
  "lat": 9.252,
  "lng": -83.863,
  "region": "Puntarenas",
  "country": "CR",
  "break_type": "beach",
  "swan_enabled": false,
  "timezone": "America/Costa_Rica",
  "description": "South Costa Rica beach break. Powerful and consistent. Jungle meets ocean.",
  "skill_minimum": "intermediate"
 },
 {
  "name": "Salsa Brava",
  "slug": "salsa-brava-cr",
  "lat": 9.656,
  "lng": -82.752,
  "region": "Limon",
  "country": "CR",
  "break_type": "reef",
  "swan_enabled": false,
  "timezone": "America/Costa_Rica",
  "description": "Caribbean Costa Rica reef. Hollow right-handers over a sharp coral shelf. Caribbean soul.",
  "skill_minimum": "advanced"
 },
 {
  "name": "Punta Roca",
  "slug": "punta-roca-sv",
  "lat": 13.505,
  "lng": -89.336,
  "region": "La Libertad",
  "country": "SV",
  "break_type": "point",
  "swan_enabled": false,
  "timezone": "America/El_Salvador",
  "description": "El Salvador's best right-hand point. Long rides over reef, strong rip current, serious locals.",
  "skill_minimum": "intermediate"
 },
 {
  "name": "El Zonte",
  "slug": "el-zonte-sv",
  "lat": 13.492,
  "lng": -89.426,
  "region": "La Libertad",
  "country": "SV",
  "break_type": "beach",
  "swan_enabled": false,
  "timezone": "America/El_Salvador",
  "description": "Bitcoin Beach. Volcanic sand, consistent beach break, chill community vibe.",
  "skill_minimum": "beginner"
 },
 {
  "name": "Chicama",
  "slug": "chicama-peru",
  "lat": -7.7,
  "lng": -79.45,
  "region": "La Libertad",
  "country": "PE",
  "break_type": "point",
  "swan_enabled": false,
  "timezone": "America/Lima",
  "description": "Longest left-hand wave in the world. Rides of over 4km on a perfect day. Pure magic.",
  "skill_minimum": "intermediate"
 },
 {
  "name": "Pico Alto",
  "slug": "pico-alto-peru",
  "lat": -12.22,
  "lng": -77.03,
  "region": "Lima",
  "country": "PE",
  "break_type": "reef",
  "swan_enabled": false,
  "timezone": "America/Lima",
  "description": "Peru's big wave. Outer reef peaks over 30ft. Rarely surfed, extremely powerful.",
  "skill_minimum": "pro"
 },
 {
  "name": "Huanchaco",
  "slug": "huanchaco-peru",
  "lat": -8.082,
  "lng": -79.118,
  "region": "La Libertad",
  "country": "PE",
  "break_type": "point",
  "swan_enabled": false,
  "timezone": "America/Lima",
  "description": "Ancient Peruvian fishing village, birthplace of the caballito de totora reed craft. Fun left point.",
  "skill_minimum": "beginner"
 },
 {
  "name": "Itacare",
  "slug": "itacare-brazil",
  "lat": -14.274,
  "lng": -38.998,
  "region": "Bahia",
  "country": "BR",
  "break_type": "beach",
  "swan_enabled": false,
  "timezone": "America/Bahia",
  "description": "Bahia's gem. Multiple beaches accessible by trail through Atlantic rainforest. Tiririca is classic.",
  "skill_minimum": "intermediate"
 },
 {
  "name": "Maresias",
  "slug": "maresias-brazil",
  "lat": -23.8,
  "lng": -45.559,
  "region": "Sao Paulo",
  "country": "BR",
  "break_type": "beach",
  "swan_enabled": false,
  "timezone": "America/Sao_Paulo",
  "description": "S\u00e3o Paulo state's best beach break. Good barreling beach peaks. Busy summer scene.",
  "skill_minimum": "intermediate"
 },
 {
  "name": "Joaquina",
  "slug": "joaquina-brazil",
  "lat": -27.635,
  "lng": -48.443,
  "region": "Santa Catarina",
  "country": "BR",
  "break_type": "beach",
  "swan_enabled": false,
  "timezone": "America/Sao_Paulo",
  "description": "Florianopolis's south beach. Consistent S swell, hollow peaks, national contest venue.",
  "skill_minimum": "intermediate"
 },
 {
  "name": "Cote des Basques",
  "slug": "cote-des-basques-france",
  "lat": 43.477,
  "lng": -1.569,
  "region": "Nouvelle-Aquitaine",
  "country": "FR",
  "break_type": "beach",
  "swan_enabled": false,
  "timezone": "Europe/Paris",
  "description": "Biarritz's legendary beach below the Grand Plage. Birthplace of European surfing.",
  "skill_minimum": "beginner"
 },
 {
  "name": "Supertubos",
  "slug": "supertubos-portugal",
  "lat": 39.357,
  "lng": -9.365,
  "region": "Centro",
  "country": "PT",
  "break_type": "beach",
  "swan_enabled": false,
  "timezone": "Europe/Lisbon",
  "description": "Peniche's powerhouse. European Pipeline. Thick, hollow barrels on a sandbar peak. CT stop.",
  "skill_minimum": "advanced"
 },
 {
  "name": "Ribeira d'Ilhas",
  "slug": "ribeira-dilhas-portugal",
  "lat": 39.25,
  "lng": -9.42,
  "region": "Centro",
  "country": "PT",
  "break_type": "reef",
  "swan_enabled": false,
  "timezone": "Europe/Lisbon",
  "description": "Ericeira's crown jewel right-hand reef. World Surfing Reserve. Long walling rights.",
  "skill_minimum": "intermediate"
 },
 {
  "name": "Mundaka",
  "slug": "mundaka-spain",
  "lat": 43.407,
  "lng": -2.699,
  "region": "Basque Country",
  "country": "ES",
  "break_type": "rivermouth",
  "swan_enabled": false,
  "timezone": "Europe/Madrid",
  "description": "Europe's best left-hand barrel. Sandbars shift with the Mundaka estuary. World-class when on.",
  "skill_minimum": "advanced"
 },
 {
  "name": "Padang Padang",
  "slug": "padang-padang-bali-id",
  "lat": -8.8107,
  "lng": 115.0881,
  "region": "Bali",
  "country": "ID",
  "break_type": "reef",
  "swan_enabled": false,
  "timezone": "Asia/Makassar",
  "description": "Impossibly perfect left-hand cave tube. Low tide drains the reef for maximum barrel.",
  "skill_minimum": "advanced"
 },
 {
  "name": "Kuta Beach",
  "slug": "kuta-beach-bali-id",
  "lat": -8.7197,
  "lng": 115.1689,
  "region": "Bali",
  "country": "ID",
  "break_type": "beach",
  "swan_enabled": false,
  "timezone": "Asia/Makassar",
  "description": "Bali's original tourist beach. Mellow beachbreak, great for beginners, endless warung food.",
  "skill_minimum": "beginner"
 },
 {
  "name": "Echo Beach (Canggu)",
  "slug": "echo-beach-bali-id",
  "lat": -8.652,
  "lng": 115.135,
  "region": "Bali",
  "country": "ID",
  "break_type": "reef",
  "swan_enabled": false,
  "timezone": "Asia/Makassar",
  "description": "Canggu's trendy reef break. Good left and right, lively cafe scene on the cliff.",
  "skill_minimum": "intermediate"
 },
 {
  "name": "Keramas",
  "slug": "keramas-bali-id",
  "lat": -8.597,
  "lng": 115.305,
  "region": "Bali",
  "country": "ID",
  "break_type": "reef",
  "swan_enabled": false,
  "timezone": "Asia/Makassar",
  "description": "East Bali's best right-hand reef. Night surfing lights, pro CT venue, powerful barrels.",
  "skill_minimum": "advanced"
 },
 {
  "name": "Desert Point (Bangko Bangko)",
  "slug": "desert-point-lombok-id",
  "lat": -8.768,
  "lng": 115.86,
  "region": "Lombok",
  "country": "ID",
  "break_type": "reef",
  "swan_enabled": false,
  "timezone": "Asia/Makassar",
  "description": "The perfect left-hander at the end of the earth. Long barrel rides on a razor-sharp reef.",
  "skill_minimum": "advanced"
 },
 {
  "name": "HT's (Hollow Trees)",
  "slug": "hts-mentawai-id",
  "lat": -2.043,
  "lng": 99.696,
  "region": "Mentawai Islands",
  "country": "ID",
  "break_type": "reef",
  "swan_enabled": false,
  "timezone": "Asia/Jakarta",
  "description": "Mentawai's crown jewel. Perfect left-hand barrels in a remote tropical paradise. Boat access only.",
  "skill_minimum": "advanced"
 },
 {
  "name": "Macaronis",
  "slug": "macaronis-mentawai-id",
  "lat": -2.206,
  "lng": 99.743,
  "region": "Mentawai Islands",
  "country": "ID",
  "break_type": "reef",
  "swan_enabled": false,
  "timezone": "Asia/Jakarta",
  "description": "The perfect fun left. Long, groomed walls in the Mentawais. Accessible for intermediates.",
  "skill_minimum": "intermediate"
 },
 {
  "name": "Kirra",
  "slug": "kirra-au",
  "lat": -28.19,
  "lng": 153.546,
  "region": "Gold Coast",
  "country": "AU",
  "break_type": "point",
  "swan_enabled": false,
  "timezone": "Australia/Brisbane",
  "description": "End of the Superbank. When the sand lines up right, the longest barrels in Australia.",
  "skill_minimum": "intermediate"
 },
 {
  "name": "Burleigh Heads",
  "slug": "burleigh-heads-au",
  "lat": -28.082,
  "lng": 153.453,
  "region": "Gold Coast",
  "country": "AU",
  "break_type": "point",
  "swan_enabled": false,
  "timezone": "Australia/Brisbane",
  "description": "Perfect point break wrapping around headland. Can barrel on low tide. CT venue.",
  "skill_minimum": "intermediate"
 },
 {
  "name": "Noosa Heads",
  "slug": "noosa-heads-au",
  "lat": -26.387,
  "lng": 153.094,
  "region": "Sunshine Coast",
  "country": "AU",
  "break_type": "point",
  "swan_enabled": false,
  "timezone": "Australia/Brisbane",
  "description": "Queensland longboard mecca. Tea Tree, First Point, National Park. Pristine and mellow.",
  "skill_minimum": "beginner"
 },
 {
  "name": "Narrabeen",
  "slug": "narrabeen-au",
  "lat": -33.712,
  "lng": 151.298,
  "region": "New South Wales",
  "country": "AU",
  "break_type": "beach",
  "swan_enabled": false,
  "timezone": "Australia/Sydney",
  "description": "Sydney's second city surf spot. Long beachbreak, strong local scene, CT history.",
  "skill_minimum": "intermediate"
 },
 {
  "name": "Manly Beach",
  "slug": "manly-beach-au",
  "lat": -33.7969,
  "lng": 151.2862,
  "region": "New South Wales",
  "country": "AU",
  "break_type": "beach",
  "swan_enabled": false,
  "timezone": "Australia/Sydney",
  "description": "Sydney's icon. Ferry access from the CBD. Fun peaks, surf culture history, annual festival.",
  "skill_minimum": "beginner"
 },
 {
  "name": "Bells Beach",
  "slug": "bells-beach-au",
  "lat": -38.368,
  "lng": 144.283,
  "region": "Victoria",
  "country": "AU",
  "break_type": "reef",
  "swan_enabled": false,
  "timezone": "Australia/Melbourne",
  "description": "Australia's most iconic surf break. Easter Rip Curl Pro has run here since 1961. Heavy rights.",
  "skill_minimum": "intermediate"
 },
 {
  "name": "Winki Pop",
  "slug": "winki-pop-au",
  "lat": -38.37,
  "lng": 144.287,
  "region": "Victoria",
  "country": "AU",
  "break_type": "reef",
  "swan_enabled": false,
  "timezone": "Australia/Melbourne",
  "description": "Right-hand reef just around the corner from Bells. Shorter but punchier and more hollow.",
  "skill_minimum": "intermediate"
 },
 {
  "name": "Surfers Point (Margaret River)",
  "slug": "surfers-point-margaret-river-au",
  "lat": -33.965,
  "lng": 114.998,
  "region": "Western Australia",
  "country": "AU",
  "break_type": "reef",
  "swan_enabled": false,
  "timezone": "Australia/Perth",
  "description": "WA's world-class left-hand reef. Raw Southern Ocean power. CT stop.",
  "skill_minimum": "advanced"
 },
 {
  "name": "Yallingup",
  "slug": "yallingup-au",
  "lat": -33.655,
  "lng": 115.042,
  "region": "Western Australia",
  "country": "AU",
  "break_type": "reef",
  "swan_enabled": false,
  "timezone": "Australia/Perth",
  "description": "Cape Naturaliste reef. Various breaks from Main Break to Three Bears. SW Indian Ocean swell.",
  "skill_minimum": "intermediate"
 },
 {
  "name": "Almwelle",
  "slug": "almwelle-at-0",
  "lat": 47.76205,
  "lng": 13.03813,
  "region": "Salzburg",
  "country": "AT",
  "break_type": "beach",
  "swan_enabled": false,
  "timezone": "Europe/Paris",
  "source": "osm"
 },
 {
  "name": "Hirohama surfing school",
  "slug": "hirohama-surfing-school-jp-1",
  "lat": 35.30347,
  "lng": 139.55263,
  "region": "Kanagawa",
  "country": "JP",
  "break_type": "beach",
  "swan_enabled": false,
  "timezone": "Asia/Jakarta",
  "source": "osm"
 },
 {
  "name": "blackforestwave",
  "slug": "blackforestwave-de-2",
  "lat": 48.88341,
  "lng": 8.69729,
  "region": "Baden-Wuerttemberg",
  "country": "DE",
  "break_type": "beach",
  "swan_enabled": false,
  "timezone": "Europe/Paris",
  "source": "osm"
 },
 {
  "name": "Eisbachwelle",
  "slug": "eisbachwelle-de-3",
  "lat": 48.14349,
  "lng": 11.58776,
  "region": "Bavaria",
  "country": "DE",
  "break_type": "beach",
  "swan_enabled": false,
  "timezone": "Europe/Paris",
  "source": "osm"
 },
 {
  "name": "Jackson Creek",
  "slug": "jackson-creek-in-4",
  "lat": 10.73334,
  "lng": 92.36668,
  "region": "Andaman and Nicobar Islands",
  "country": "IN",
  "break_type": "beach",
  "swan_enabled": false,
  "timezone": "Asia/Jakarta",
  "source": "osm"
 },
 {
  "name": "Bremgartner Welle",
  "slug": "bremgartner-welle-ch-5",
  "lat": 47.35587,
  "lng": 8.34048,
  "region": "Aargau",
  "country": "CH",
  "break_type": "beach",
  "swan_enabled": false,
  "timezone": "Europe/Paris",
  "source": "osm"
 },
 {
  "name": "Windsurfingclub Neustadt/Ostholstein e.V.",
  "slug": "windsurfingclub-neustadt-ostholstein-e-v-de-6",
  "lat": 54.08848,
  "lng": 10.87543,
  "region": "Schleswig-Holstein",
  "country": "DE",
  "break_type": "beach",
  "swan_enabled": false,
  "timezone": "Europe/Paris",
  "source": "osm"
 },
 {
  "name": "Scout Surf Wave",
  "slug": "scout-surf-wave-us-7",
  "lat": 38.53658,
  "lng": -105.98887,
  "region": "Colorado",
  "country": "US",
  "break_type": "beach",
  "swan_enabled": false,
  "timezone": "America/Denver",
  "source": "osm"
 },
 {
  "name": "Tramore Surf Shop And School",
  "slug": "tramore-surf-shop-and-school-ie-8",
  "lat": 52.15975,
  "lng": -7.14082,
  "region": "Munster",
  "country": "IE",
  "break_type": "beach",
  "swan_enabled": false,
  "timezone": "Europe/Lisbon",
  "source": "osm"
 },
 {
  "name": "Oceanics Surf School",
  "slug": "oceanics-surf-school-ie-9",
  "lat": 52.16099,
  "lng": -7.14048,
  "region": "Munster",
  "country": "IE",
  "break_type": "beach",
  "swan_enabled": false,
  "timezone": "Europe/Lisbon",
  "source": "osm"
 },
 {
  "name": "Bunmahon Surf School",
  "slug": "bunmahon-surf-school-ie-10",
  "lat": 52.13882,
  "lng": -7.37077,
  "region": "Munster",
  "country": "IE",
  "break_type": "beach",
  "swan_enabled": false,
  "timezone": "Europe/Lisbon",
  "source": "osm"
 },
 {
  "name": "Boise Whitewater Park",
  "slug": "boise-whitewater-park-us-11",
  "lat": 43.62544,
  "lng": -116.23465,
  "region": "Idaho",
  "country": "US",
  "break_type": "beach",
  "swan_enabled": false,
  "timezone": "America/Los_Angeles",
  "source": "osm"
 },
 {
  "name": "Onaka",
  "slug": "onaka-fr-12",
  "lat": 43.37236,
  "lng": -1.77436,
  "region": "Aquitaine",
  "country": "FR",
  "break_type": "beach",
  "swan_enabled": false,
  "timezone": "Europe/Lisbon",
  "source": "osm"
 },
 {
  "name": "Piha Surf Shop",
  "slug": "piha-surf-shop-nz-13",
  "lat": -36.95569,
  "lng": 174.47649,
  "region": "Auckland",
  "country": "NZ",
  "break_type": "beach",
  "swan_enabled": false,
  "timezone": "Pacific/Auckland",
  "source": "osm"
 },
 {
  "name": "Jah Shaka Surf Shop",
  "slug": "jah-shaka-surf-shop-pt-14",
  "lat": 37.09969,
  "lng": -8.67247,
  "region": "Faro",
  "country": "PT",
  "break_type": "beach",
  "swan_enabled": false,
  "timezone": "Europe/Lisbon",
  "source": "osm"
 },
 {
  "name": "HCL Oc\u00e9an Club",
  "slug": "hcl-oc-an-club-fr-16",
  "lat": 45.00377,
  "lng": -1.20092,
  "region": "Aquitaine",
  "country": "FR",
  "break_type": "beach",
  "swan_enabled": false,
  "timezone": "Europe/Lisbon",
  "source": "osm"
 },
 {
  "name": "California Street",
  "slug": "california-street-fr-17",
  "lat": 45.0013,
  "lng": -1.1996,
  "region": "Aquitaine",
  "country": "FR",
  "break_type": "beach",
  "swan_enabled": false,
  "timezone": "Europe/Lisbon",
  "source": "osm"
 },
 {
  "name": "Billabong",
  "slug": "billabong-fr-18",
  "lat": 45.0013,
  "lng": -1.19982,
  "region": "Aquitaine",
  "country": "FR",
  "break_type": "beach",
  "swan_enabled": false,
  "timezone": "Europe/Lisbon",
  "source": "osm"
 },
 {
  "name": "Backdoor Surf Shop",
  "slug": "backdoor-surf-shop-pt-19",
  "lat": 39.2675,
  "lng": -9.33496,
  "region": "Lisbon",
  "country": "PT",
  "break_type": "beach",
  "swan_enabled": false,
  "timezone": "Europe/Lisbon",
  "source": "osm"
 },
 {
  "name": "Ripar Surf School",
  "slug": "ripar-surf-school-pt-20",
  "lat": 39.26755,
  "lng": -9.33494,
  "region": "Lisbon",
  "country": "PT",
  "break_type": "beach",
  "swan_enabled": false,
  "timezone": "Europe/Lisbon",
  "source": "osm"
 },
 {
  "name": "Global Surf School",
  "slug": "global-surf-school-pt-21",
  "lat": 39.26745,
  "lng": -9.335,
  "region": "Lisbon",
  "country": "PT",
  "break_type": "beach",
  "swan_enabled": false,
  "timezone": "Europe/Lisbon",
  "source": "osm"
 },
 {
  "name": "Big Mama Surf School",
  "slug": "big-mama-surf-school-fr-22",
  "lat": 45.00769,
  "lng": -1.19518,
  "region": "Aquitaine",
  "country": "FR",
  "break_type": "beach",
  "swan_enabled": false,
  "timezone": "Europe/Lisbon",
  "source": "osm"
 },
 {
  "name": "Surfspot Lemkenhafen",
  "slug": "surfspot-lemkenhafen-de-23",
  "lat": 54.44543,
  "lng": 11.08981,
  "region": "Schleswig-Holstein",
  "country": "DE",
  "break_type": "beach",
  "swan_enabled": false,
  "timezone": "Europe/Paris",
  "source": "osm"
 },
 {
  "name": "Surfeinstiegstelle Rohrdommel",
  "slug": "surfeinstiegstelle-rohrdommel-de-24",
  "lat": 52.50165,
  "lng": 8.35231,
  "region": "Lower Saxony",
  "country": "DE",
  "break_type": "beach",
  "swan_enabled": false,
  "timezone": "Europe/Paris",
  "source": "osm"
 },
 {
  "name": "Rip Curl - Magasin Technique",
  "slug": "rip-curl-magasin-technique-fr-25",
  "lat": 43.66864,
  "lng": -1.38232,
  "region": "Aquitaine",
  "country": "FR",
  "break_type": "beach",
  "swan_enabled": false,
  "timezone": "Europe/Lisbon",
  "source": "osm"
 },
 {
  "name": "Billabong Outlet",
  "slug": "billabong-outlet-fr-26",
  "lat": 43.67094,
  "lng": -1.38967,
  "region": "Aquitaine",
  "country": "FR",
  "break_type": "beach",
  "swan_enabled": false,
  "timezone": "Europe/Lisbon",
  "source": "osm"
 },
 {
  "name": "Mogueric",
  "slug": "mogueric-fr-27",
  "lat": 48.69348,
  "lng": -4.08735,
  "region": "Brittany",
  "country": "FR",
  "break_type": "beach",
  "swan_enabled": false,
  "timezone": "Europe/Lisbon",
  "source": "osm"
 },
 {
  "name": "Gerupuk Inside",
  "slug": "gerupuk-inside-id-28",
  "lat": -8.91526,
  "lng": 116.36551,
  "region": "West Nusa Tenggara",
  "country": "ID",
  "break_type": "beach",
  "swan_enabled": false,
  "timezone": "Asia/Jakarta",
  "source": "osm"
 },
 {
  "name": "Don Don",
  "slug": "don-don-id-29",
  "lat": -8.91091,
  "lng": 116.35482,
  "region": "West Nusa Tenggara",
  "country": "ID",
  "break_type": "beach",
  "swan_enabled": false,
  "timezone": "Asia/Jakarta",
  "source": "osm"
 },
 {
  "name": "Mawi",
  "slug": "mawi-id-30",
  "lat": -8.87684,
  "lng": 116.1569,
  "region": "West Nusa Tenggara",
  "country": "ID",
  "break_type": "beach",
  "swan_enabled": false,
  "timezone": "Asia/Jakarta",
  "source": "osm"
 },
 {
  "name": "\u00c9cole de Surf de Bretagne (La Torche)",
  "slug": "cole-de-surf-de-bretagne-la-torche-fr-31",
  "lat": 47.83717,
  "lng": -4.34572,
  "region": "Brittany",
  "country": "FR",
  "break_type": "beach",
  "swan_enabled": false,
  "timezone": "Europe/Lisbon",
  "source": "osm"
 },
 {
  "name": "La digue Reef",
  "slug": "la-digue-reef-pf-32",
  "lat": -17.53435,
  "lng": -149.58443,
  "region": "Iles du Vent",
  "country": "PF",
  "break_type": "reef",
  "swan_enabled": false,
  "timezone": "America/Los_Angeles",
  "source": "osm"
 },
 {
  "name": "Teahupoo Reef",
  "slug": "teahupoo-reef-pf-33",
  "lat": -17.86673,
  "lng": -149.2537,
  "region": "South America",
  "country": "PF",
  "break_type": "beach",
  "swan_enabled": false,
  "timezone": "America/Los_Angeles",
  "source": "osm"
 },
 {
  "name": "Surfesjappa",
  "slug": "surfesjappa-no-34",
  "lat": 59.91288,
  "lng": 10.72892,
  "region": "Oslo",
  "country": "NO",
  "break_type": "beach",
  "swan_enabled": false,
  "timezone": "Europe/Paris",
  "source": "osm"
 },
 {
  "name": "Escola de Surf",
  "slug": "escola-de-surf-br-35",
  "lat": -27.68445,
  "lng": -48.48934,
  "region": "Santa Catarina",
  "country": "BR",
  "break_type": "beach",
  "swan_enabled": false,
  "timezone": "America/New_York",
  "source": "osm"
 },
 {
  "name": "Escola de Surf Paz na Terra",
  "slug": "escola-de-surf-paz-na-terra-br-36",
  "lat": -27.68961,
  "lng": -48.48217,
  "region": "Santa Catarina",
  "country": "BR",
  "break_type": "beach",
  "swan_enabled": false,
  "timezone": "America/New_York",
  "source": "osm"
 },
 {
  "name": "Surfing",
  "slug": "surfing-au-38",
  "lat": -31.53823,
  "lng": 159.08192,
  "region": "New South Wales",
  "country": "AU",
  "break_type": "beach",
  "swan_enabled": false,
  "timezone": "Pacific/Auckland",
  "source": "osm"
 },
 {
  "name": "Surfpoint Lago d'Idro",
  "slug": "surfpoint-lago-d-idro-it-39",
  "lat": 45.75552,
  "lng": 10.49776,
  "region": "Lombardy",
  "country": "IT",
  "break_type": "point",
  "swan_enabled": false,
  "timezone": "Europe/Paris",
  "source": "osm"
 },
 {
  "name": "Ouakam",
  "slug": "ouakam-sn-40",
  "lat": 14.71398,
  "lng": -17.49184,
  "region": "Dakar",
  "country": "SN",
  "break_type": "beach",
  "swan_enabled": false,
  "timezone": "Europe/Lisbon",
  "source": "osm"
 },
 {
  "name": "Local",
  "slug": "local-br-41",
  "lat": -27.6702,
  "lng": -48.48216,
  "region": "Santa Catarina",
  "country": "BR",
  "break_type": "beach",
  "swan_enabled": false,
  "timezone": "America/New_York",
  "source": "osm"
 },
 {
  "name": "Hawaiian Island Surf and Sport",
  "slug": "hawaiian-island-surf-and-sport-us-42",
  "lat": 20.88619,
  "lng": -156.45302,
  "region": "Hawaii",
  "country": "US",
  "break_type": "beach",
  "swan_enabled": false,
  "timezone": "America/Los_Angeles",
  "source": "osm"
 },
 {
  "name": "TSN",
  "slug": "tsn-br-43",
  "lat": -22.95464,
  "lng": -43.02824,
  "region": "Rio de Janeiro",
  "country": "BR",
  "break_type": "beach",
  "swan_enabled": false,
  "timezone": "America/New_York",
  "source": "osm"
 },
 {
  "name": "\u00c9cole de surf du sud",
  "slug": "cole-de-surf-du-sud-re-44",
  "lat": -21.26277,
  "lng": 55.33369,
  "region": "Reunion",
  "country": "RE",
  "break_type": "beach",
  "swan_enabled": false,
  "timezone": "Asia/Karachi",
  "source": "osm"
 },
 {
  "name": "Demon Dayz Wind Surfing Centre",
  "slug": "demon-dayz-wind-surfing-centre-th-45",
  "lat": 12.85169,
  "lng": 100.90004,
  "region": "Chon Buri",
  "country": "TH",
  "break_type": "beach",
  "swan_enabled": false,
  "timezone": "Asia/Jakarta",
  "source": "osm"
 },
 {
  "name": "Spot de Damencourt",
  "slug": "spot-de-damencourt-gp-46",
  "lat": 16.33633,
  "lng": -61.36215,
  "region": "Guadeloupe",
  "country": "GP",
  "break_type": "beach",
  "swan_enabled": false,
  "timezone": "America/New_York",
  "source": "osm"
 },
 {
  "name": "AK Kite Surf Center",
  "slug": "ak-kite-surf-center-vn-47",
  "lat": 10.94862,
  "lng": 108.20703,
  "region": "Binh Thuan",
  "country": "VN",
  "break_type": "beach",
  "swan_enabled": false,
  "timezone": "Asia/Jakarta",
  "source": "osm"
 },
 {
  "name": "OKE Surfboards",
  "slug": "oke-surfboards-au-48",
  "lat": -38.00952,
  "lng": 145.10462,
  "region": "Victoria",
  "country": "AU",
  "break_type": "beach",
  "swan_enabled": false,
  "timezone": "Pacific/Auckland",
  "source": "osm"
 },
 {
  "name": "Ellis Beach Surf Life Saving Club",
  "slug": "ellis-beach-surf-life-saving-club-au-49",
  "lat": -16.72337,
  "lng": 145.64327,
  "region": "Queensland",
  "country": "AU",
  "break_type": "beach",
  "swan_enabled": false,
  "timezone": "Pacific/Auckland",
  "source": "osm"
 },
 {
  "name": "Freedom Surf School",
  "slug": "freedom-surf-school-ie-50",
  "lat": 52.16129,
  "lng": -7.141,
  "region": "Munster",
  "country": "IE",
  "break_type": "beach",
  "swan_enabled": false,
  "timezone": "Europe/Lisbon",
  "source": "osm"
 },
 {
  "name": "Pukas Surf Eskola",
  "slug": "pukas-surf-eskola-es-51",
  "lat": 43.3249,
  "lng": -1.97579,
  "region": "Basque Country",
  "country": "ES",
  "break_type": "beach",
  "swan_enabled": false,
  "timezone": "Europe/Lisbon",
  "source": "osm"
 },
 {
  "name": "H2O Surfshop",
  "slug": "h2o-surfshop-pt-52",
  "lat": 39.74699,
  "lng": -8.9353,
  "region": "Leiria",
  "country": "PT",
  "break_type": "beach",
  "swan_enabled": false,
  "timezone": "Europe/Lisbon",
  "source": "osm"
 },
 {
  "name": "Magnific Rock Hotel",
  "slug": "magnific-rock-hotel-ni-53",
  "lat": 11.45319,
  "lng": -86.10336,
  "region": "Rivas",
  "country": "NI",
  "break_type": "beach",
  "swan_enabled": false,
  "timezone": "America/New_York",
  "source": "osm"
 },
 {
  "name": "Au Spot",
  "slug": "au-spot-fr-54",
  "lat": 48.83916,
  "lng": 2.27803,
  "region": "Ile-de-France",
  "country": "FR",
  "break_type": "beach",
  "swan_enabled": false,
  "timezone": "Europe/Lisbon",
  "source": "osm"
 },
 {
  "name": "One Eye",
  "slug": "one-eye-mu-55",
  "lat": -20.4672,
  "lng": 57.30574,
  "region": "Black River",
  "country": "MU",
  "break_type": "beach",
  "swan_enabled": false,
  "timezone": "Asia/Karachi",
  "source": "osm"
 },
 {
  "name": "Bombora",
  "slug": "bombora-us-56",
  "lat": 36.97135,
  "lng": -121.94398,
  "region": "California",
  "country": "US",
  "break_type": "beach",
  "swan_enabled": false,
  "timezone": "America/Los_Angeles",
  "source": "osm"
 },
 {
  "name": "New Brighton Reef",
  "slug": "new-brighton-reef-us-59",
  "lat": 36.97553,
  "lng": -121.94073,
  "region": "California",
  "country": "US",
  "break_type": "beach",
  "swan_enabled": false,
  "timezone": "America/Los_Angeles",
  "source": "osm"
 },
 {
  "name": "Toes Over",
  "slug": "toes-over-us-64",
  "lat": 36.97108,
  "lng": -121.94868,
  "region": "California",
  "country": "US",
  "break_type": "beach",
  "swan_enabled": false,
  "timezone": "America/Los_Angeles",
  "source": "osm"
 },
 {
  "name": "Trees",
  "slug": "trees-us-65",
  "lat": 36.96695,
  "lng": -121.95658,
  "region": "California",
  "country": "US",
  "break_type": "beach",
  "swan_enabled": false,
  "timezone": "America/Los_Angeles",
  "source": "osm"
 },
 {
  "name": "Banzai",
  "slug": "banzai-it-67",
  "lat": 42.0341,
  "lng": 11.92111,
  "region": "Latium",
  "country": "IT",
  "break_type": "beach",
  "swan_enabled": false,
  "timezone": "Europe/Paris",
  "source": "osm"
 },
 {
  "name": "Cala della Morte",
  "slug": "cala-della-morte-it-68",
  "lat": 42.03898,
  "lng": 11.90218,
  "region": "Latium",
  "country": "IT",
  "break_type": "beach",
  "swan_enabled": false,
  "timezone": "Europe/Paris",
  "source": "osm"
 },
 {
  "name": "Off the Wall",
  "slug": "off-the-wall-it-69",
  "lat": 42.03179,
  "lng": 11.92713,
  "region": "Latium",
  "country": "IT",
  "break_type": "beach",
  "swan_enabled": false,
  "timezone": "Europe/Paris",
  "source": "osm"
 },
 {
  "name": "Roccetta",
  "slug": "roccetta-it-70",
  "lat": 42.03765,
  "lng": 11.87839,
  "region": "Latium",
  "country": "IT",
  "break_type": "beach",
  "swan_enabled": false,
  "timezone": "Europe/Paris",
  "source": "osm"
 },
 {
  "name": "Surf Action",
  "slug": "surf-action-za-71",
  "lat": -30.86359,
  "lng": 30.36993,
  "region": "KwaZulu-Natal",
  "country": "ZA",
  "break_type": "beach",
  "swan_enabled": false,
  "timezone": "Europe/Paris",
  "source": "osm"
 },
 {
  "name": "H2Oextreme",
  "slug": "h2oextreme-ke-72",
  "lat": -4.35115,
  "lng": 39.56339,
  "region": "Kwale",
  "country": "KE",
  "break_type": "beach",
  "swan_enabled": false,
  "timezone": "Europe/Paris",
  "source": "osm"
 },
 {
  "name": "Punta Roca",
  "slug": "punta-roca-co-73",
  "lat": 11.04258,
  "lng": -74.91924,
  "region": "Atlantico",
  "country": "CO",
  "break_type": "beach",
  "swan_enabled": false,
  "timezone": "America/New_York",
  "source": "osm"
 },
 {
  "name": "Windsurfing und Segelclub Wetter 76 e.V. Bernd Barenberg",
  "slug": "windsurfing-und-segelclub-wetter-76-e-v-bernd-ba-de-74",
  "lat": 51.38861,
  "lng": 7.39466,
  "region": "North Rhine-Westphalia",
  "country": "DE",
  "break_type": "beach",
  "swan_enabled": false,
  "timezone": "Europe/Paris",
  "source": "osm"
 },
 {
  "name": "Gili Watersports",
  "slug": "gili-watersports-id-75",
  "lat": -8.36264,
  "lng": 116.08745,
  "region": "West Nusa Tenggara",
  "country": "ID",
  "break_type": "beach",
  "swan_enabled": false,
  "timezone": "Asia/Jakarta",
  "source": "osm"
 },
 {
  "name": "S.A.L.T - Surfschule",
  "slug": "s-a-l-t-surfschule-de-76",
  "lat": 49.56789,
  "lng": 7.0814,
  "region": "Rheinland-Pfalz",
  "country": "DE",
  "break_type": "beach",
  "swan_enabled": false,
  "timezone": "Europe/Paris",
  "source": "osm"
 },
 {
  "name": "Piccolo Paradiso",
  "slug": "piccolo-paradiso-it-77",
  "lat": 42.07473,
  "lng": 11.80481,
  "region": "Latium",
  "country": "IT",
  "break_type": "beach",
  "swan_enabled": false,
  "timezone": "Europe/Paris",
  "source": "osm"
 },
 {
  "name": "Move Surfstore Podersdorf",
  "slug": "move-surfstore-podersdorf-at-78",
  "lat": 47.85903,
  "lng": 16.83077,
  "region": "Burgenland",
  "country": "AT",
  "break_type": "beach",
  "swan_enabled": false,
  "timezone": "Europe/Paris",
  "source": "osm"
 },
 {
  "name": "Fregene Surf Club",
  "slug": "fregene-surf-club-it-79",
  "lat": 41.85351,
  "lng": 12.19195,
  "region": "Latium",
  "country": "IT",
  "break_type": "beach",
  "swan_enabled": false,
  "timezone": "Europe/Paris",
  "source": "osm"
 },
 {
  "name": "The Surf Experience",
  "slug": "the-surf-experience-pt-80",
  "lat": 37.1136,
  "lng": -8.7035,
  "region": "Faro",
  "country": "PT",
  "break_type": "beach",
  "swan_enabled": false,
  "timezone": "Europe/Lisbon",
  "source": "osm"
 },
 {
  "name": "Prasonisi Center",
  "slug": "prasonisi-center-gr-81",
  "lat": 35.89038,
  "lng": 27.77534,
  "region": "South Aegean",
  "country": "GR",
  "break_type": "beach",
  "swan_enabled": false,
  "timezone": "Europe/Paris",
  "source": "osm"
 },
 {
  "name": "Gili T Surfspot",
  "slug": "gili-t-surfspot-id-82",
  "lat": -8.36176,
  "lng": 116.04043,
  "region": "Oceania",
  "country": "ID",
  "break_type": "beach",
  "swan_enabled": false,
  "timezone": "Asia/Jakarta",
  "source": "osm"
 },
 {
  "name": "windsurf and kite spot",
  "slug": "windsurf-and-kite-spot-ar-83",
  "lat": -30.177,
  "lng": -69.09959,
  "region": "San Juan",
  "country": "AR",
  "break_type": "beach",
  "swan_enabled": false,
  "timezone": "America/New_York",
  "source": "osm"
 },
 {
  "name": "Aloha Surf & Sup School",
  "slug": "aloha-surf-sup-school-pt-84",
  "lat": 41.34552,
  "lng": -8.75337,
  "region": "Porto",
  "country": "PT",
  "break_type": "beach",
  "swan_enabled": false,
  "timezone": "Europe/Lisbon",
  "source": "osm"
 },
 {
  "name": "Shark Waves Surf School",
  "slug": "shark-waves-surf-school-ni-85",
  "lat": 12.36126,
  "lng": -87.02282,
  "region": "Leon",
  "country": "NI",
  "break_type": "beach",
  "swan_enabled": false,
  "timezone": "America/New_York",
  "source": "osm"
 },
 {
  "name": "Supertubes",
  "slug": "supertubes-za-86",
  "lat": -34.03324,
  "lng": 24.93519,
  "region": "Eastern Cape",
  "country": "ZA",
  "break_type": "beach",
  "swan_enabled": false,
  "timezone": "Europe/Paris",
  "source": "osm"
 },
 {
  "name": "Caleta Los Piures",
  "slug": "caleta-los-piures-cl-87",
  "lat": -34.42443,
  "lng": -72.04378,
  "region": "O'Higgins",
  "country": "CL",
  "break_type": "beach",
  "swan_enabled": false,
  "timezone": "America/New_York",
  "source": "osm"
 },
 {
  "name": "ION Club",
  "slug": "ion-club-mu-88",
  "lat": -20.46598,
  "lng": 57.31705,
  "region": "Black River",
  "country": "MU",
  "break_type": "beach",
  "swan_enabled": false,
  "timezone": "Asia/Karachi",
  "source": "osm"
 },
 {
  "name": "Mangsit",
  "slug": "mangsit-id-89",
  "lat": -8.4776,
  "lng": 116.03617,
  "region": "West Nusa Tenggara",
  "country": "ID",
  "break_type": "beach",
  "swan_enabled": false,
  "timezone": "Asia/Jakarta",
  "source": "osm"
 },
 {
  "name": "Montong",
  "slug": "montong-id-90",
  "lat": -8.55178,
  "lng": 116.06775,
  "region": "West Nusa Tenggara",
  "country": "ID",
  "break_type": "beach",
  "swan_enabled": false,
  "timezone": "Asia/Jakarta",
  "source": "osm"
 },
 {
  "name": "SurfPoel",
  "slug": "surfpoel-nl-91",
  "lat": 52.06653,
  "lng": 4.34686,
  "region": "South Holland",
  "country": "NL",
  "break_type": "beach",
  "swan_enabled": false,
  "timezone": "Europe/Lisbon",
  "source": "osm"
 },
 {
  "name": "Sweetspot - \u00c9cole de surf",
  "slug": "sweetspot-cole-de-surf-fr-92",
  "lat": 48.53057,
  "lng": -4.74793,
  "region": "Brittany",
  "country": "FR",
  "break_type": "beach",
  "swan_enabled": false,
  "timezone": "Europe/Lisbon",
  "source": "osm"
 },
 {
  "name": "La nord",
  "slug": "la-nord-fr-93",
  "lat": 44.449,
  "lng": -1.2569,
  "region": "Aquitaine",
  "country": "FR",
  "break_type": "beach",
  "swan_enabled": false,
  "timezone": "Europe/Lisbon",
  "source": "osm"
 },
 {
  "name": "Red Rock-Corindi Surf Lifesaving Club",
  "slug": "red-rock-corindi-surf-lifesaving-club-au-94",
  "lat": -29.98262,
  "lng": 153.23031,
  "region": "New South Wales",
  "country": "AU",
  "break_type": "beach",
  "swan_enabled": false,
  "timezone": "Pacific/Auckland",
  "source": "osm"
 },
 {
  "name": "Windsurfvereniging Zegerplas",
  "slug": "windsurfvereniging-zegerplas-nl-95",
  "lat": 52.13244,
  "lng": 4.68113,
  "region": "South Holland",
  "country": "NL",
  "break_type": "beach",
  "swan_enabled": false,
  "timezone": "Europe/Lisbon",
  "source": "osm"
 },
 {
  "name": "Stalls for Renting Surf Boards / Lessons",
  "slug": "stalls-for-renting-surf-boards-lessons-pe-96",
  "lat": -12.12907,
  "lng": -77.03667,
  "region": "Lima",
  "country": "PE",
  "break_type": "beach",
  "swan_enabled": false,
  "timezone": "America/New_York",
  "source": "osm"
 },
 {
  "name": "Graveyard Surf",
  "slug": "graveyard-surf-nz-97",
  "lat": -42.31177,
  "lng": 173.75229,
  "region": "Canterbury",
  "country": "NZ",
  "break_type": "beach",
  "swan_enabled": false,
  "timezone": "Pacific/Auckland",
  "source": "osm"
 },
 {
  "name": "Surfclub Ter Aar",
  "slug": "surfclub-ter-aar-nl-98",
  "lat": 52.1976,
  "lng": 4.72743,
  "region": "South Holland",
  "country": "NL",
  "break_type": "beach",
  "swan_enabled": false,
  "timezone": "Europe/Lisbon",
  "source": "osm"
 },
 {
  "name": "OnePalm",
  "slug": "onepalm-fr-99",
  "lat": 43.87667,
  "lng": -1.30297,
  "region": "Aquitaine",
  "country": "FR",
  "break_type": "beach",
  "swan_enabled": false,
  "timezone": "Europe/Lisbon",
  "source": "osm"
 },
 {
  "name": "Natura - \u00c9cole Surf Shop",
  "slug": "natura-cole-surf-shop-fr-100",
  "lat": 43.87735,
  "lng": -1.30242,
  "region": "Aquitaine",
  "country": "FR",
  "break_type": "beach",
  "swan_enabled": false,
  "timezone": "Europe/Lisbon",
  "source": "osm"
 },
 {
  "name": "Pico de Surf do Lodinho",
  "slug": "pico-de-surf-do-lodinho-br-101",
  "lat": -19.93288,
  "lng": -40.11568,
  "region": "Espirito Santo",
  "country": "BR",
  "break_type": "beach",
  "swan_enabled": false,
  "timezone": "America/New_York",
  "source": "osm"
 },
 {
  "name": "Pico de Surf do Urubu",
  "slug": "pico-de-surf-do-urubu-br-102",
  "lat": -19.9333,
  "lng": -40.11826,
  "region": "Espirito Santo",
  "country": "BR",
  "break_type": "beach",
  "swan_enabled": false,
  "timezone": "America/New_York",
  "source": "osm"
 },
 {
  "name": "Westside Surf",
  "slug": "westside-surf-ca-104",
  "lat": 49.15215,
  "lng": -125.90234,
  "region": "British Columbia",
  "country": "CA",
  "break_type": "beach",
  "swan_enabled": false,
  "timezone": "America/Los_Angeles",
  "source": "osm"
 },
 {
  "name": "Vedb\u00e6k Sejlklub, Surfafdelingen",
  "slug": "vedb-k-sejlklub-surfafdelingen-dk-105",
  "lat": 55.84822,
  "lng": 12.57199,
  "region": "Capital Region",
  "country": "DK",
  "break_type": "beach",
  "swan_enabled": false,
  "timezone": "Europe/Paris",
  "source": "osm"
 },
 {
  "name": "Agnes Water Surf Life Saving Club",
  "slug": "agnes-water-surf-life-saving-club-au-106",
  "lat": -24.1954,
  "lng": 151.89814,
  "region": "Queensland",
  "country": "AU",
  "break_type": "beach",
  "swan_enabled": false,
  "timezone": "Pacific/Auckland",
  "source": "osm"
 },
 {
  "name": "Palm Beach Tenerife Surf Shop and School",
  "slug": "palm-beach-tenerife-surf-shop-and-school-es-107",
  "lat": 28.06081,
  "lng": -16.73297,
  "region": "Canary Islands",
  "country": "ES",
  "break_type": "beach",
  "swan_enabled": false,
  "timezone": "Europe/Lisbon",
  "source": "osm"
 },
 {
  "name": "Flow Rider",
  "slug": "flow-rider-no-108",
  "lat": 59.44895,
  "lng": 9.07654,
  "region": "Telemark",
  "country": "NO",
  "break_type": "beach",
  "swan_enabled": false,
  "timezone": "Europe/Paris",
  "source": "osm"
 },
 {
  "name": "Wangerooger Yachtclub",
  "slug": "wangerooger-yachtclub-de-109",
  "lat": 53.79371,
  "lng": 7.89308,
  "region": "Lower Saxony",
  "country": "DE",
  "break_type": "beach",
  "swan_enabled": false,
  "timezone": "Europe/Paris",
  "source": "osm"
 },
 {
  "name": "Sand & Sun Surf Shop",
  "slug": "sand-sun-surf-shop-us-110",
  "lat": 33.78421,
  "lng": -78.77583,
  "region": "South Carolina",
  "country": "US",
  "break_type": "beach",
  "swan_enabled": false,
  "timezone": "America/New_York",
  "source": "osm"
 },
 {
  "name": "Surfvereniging Windkracht",
  "slug": "surfvereniging-windkracht-nl-111",
  "lat": 51.81381,
  "lng": 4.73513,
  "region": "South Holland",
  "country": "NL",
  "break_type": "beach",
  "swan_enabled": false,
  "timezone": "Europe/Lisbon",
  "source": "osm"
 },
 {
  "name": "International Surf School",
  "slug": "international-surf-school-pt-112",
  "lat": 37.01022,
  "lng": -8.94383,
  "region": "Faro",
  "country": "PT",
  "break_type": "beach",
  "swan_enabled": false,
  "timezone": "Europe/Lisbon",
  "source": "osm"
 },
 {
  "name": "Glash\u00e4llen",
  "slug": "glash-llen-se-113",
  "lat": 65.9031,
  "lng": 20.00817,
  "region": "Norrbotten",
  "country": "SE",
  "break_type": "beach",
  "swan_enabled": false,
  "timezone": "Europe/Paris",
  "source": "osm"
 },
 {
  "name": "Absolute SURF - ESB CROZON-MORGAT",
  "slug": "absolute-surf-esb-crozon-morgat-fr-114",
  "lat": 48.22605,
  "lng": -4.50458,
  "region": "Brittany",
  "country": "FR",
  "break_type": "beach",
  "swan_enabled": false,
  "timezone": "Europe/Lisbon",
  "source": "osm"
 },
 {
  "name": "Bali Green Surf",
  "slug": "bali-green-surf-id-115",
  "lat": -8.68612,
  "lng": 115.16483,
  "region": "Bali",
  "country": "ID",
  "break_type": "beach",
  "swan_enabled": false,
  "timezone": "Asia/Jakarta",
  "source": "osm"
 },
 {
  "name": "West coast board shop",
  "slug": "west-coast-board-shop-it-116",
  "lat": 39.9005,
  "lng": 8.59138,
  "region": "Sardinia",
  "country": "IT",
  "break_type": "beach",
  "swan_enabled": false,
  "timezone": "Europe/Paris",
  "source": "osm"
 },
 {
  "name": "Veddelev Surfklub",
  "slug": "veddelev-surfklub-dk-117",
  "lat": 55.67792,
  "lng": 12.0704,
  "region": "Zealand",
  "country": "DK",
  "break_type": "beach",
  "swan_enabled": false,
  "timezone": "Europe/Paris",
  "source": "osm"
 },
 {
  "name": "Lewes Street Surf Beach",
  "slug": "lewes-street-surf-beach-us-118",
  "lat": 38.46768,
  "lng": -75.04927,
  "region": "Delaware",
  "country": "US",
  "break_type": "beach",
  "swan_enabled": false,
  "timezone": "America/New_York",
  "source": "osm"
 },
 {
  "name": "Matosinhos",
  "slug": "matosinhos-pt-119",
  "lat": 41.17096,
  "lng": -8.69096,
  "region": "Porto",
  "country": "PT",
  "break_type": "beach",
  "swan_enabled": false,
  "timezone": "Europe/Lisbon",
  "source": "osm"
 },
 {
  "name": "Baia dos Juncos - Surf Zone",
  "slug": "baia-dos-juncos-surf-zone-pt-120",
  "lat": 32.81152,
  "lng": -17.03896,
  "region": "Madeira",
  "country": "PT",
  "break_type": "beach",
  "swan_enabled": false,
  "timezone": "Europe/Lisbon",
  "source": "osm"
 },
 {
  "name": "Fabian Sport Surf Center",
  "slug": "fabian-sport-surf-center-es-121",
  "lat": 39.37607,
  "lng": 3.23961,
  "region": "Balearic Islands",
  "country": "ES",
  "break_type": "beach",
  "swan_enabled": false,
  "timezone": "Europe/Lisbon",
  "source": "osm"
 },
 {
  "name": "Kook Proof",
  "slug": "kook-proof-pt-122",
  "lat": 41.52764,
  "lng": -8.78067,
  "region": "Braga",
  "country": "PT",
  "break_type": "beach",
  "swan_enabled": false,
  "timezone": "Europe/Lisbon",
  "source": "osm"
 },
 {
  "name": "Guts Surfboards",
  "slug": "guts-surfboards-gb-123",
  "lat": 51.57677,
  "lng": -4.04613,
  "region": "Wales",
  "country": "GB",
  "break_type": "beach",
  "swan_enabled": false,
  "timezone": "Europe/Lisbon",
  "source": "osm"
 },
 {
  "name": "Hot Dog Surf Shop",
  "slug": "hot-dog-surf-shop-gb-124",
  "lat": 51.5841,
  "lng": -4.0604,
  "region": "Wales",
  "country": "GB",
  "break_type": "beach",
  "swan_enabled": false,
  "timezone": "Europe/Lisbon",
  "source": "osm"
 },
 {
  "name": "Surf FX",
  "slug": "surf-fx-au-125",
  "lat": -27.98084,
  "lng": 153.41024,
  "region": "Queensland",
  "country": "AU",
  "break_type": "beach",
  "swan_enabled": false,
  "timezone": "Pacific/Auckland",
  "source": "osm"
 },
 {
  "name": "New School Kitesurfing",
  "slug": "new-school-kitesurfing-it-126",
  "lat": 45.69456,
  "lng": 10.75599,
  "region": "Veneto",
  "country": "IT",
  "break_type": "beach",
  "swan_enabled": false,
  "timezone": "Europe/Paris",
  "source": "osm"
 },
 {
  "name": "Honoli\u2018i",
  "slug": "honoli-i-us-127",
  "lat": 19.75549,
  "lng": -155.09066,
  "region": "Hawaii",
  "country": "US",
  "break_type": "beach",
  "swan_enabled": false,
  "timezone": "America/Los_Angeles",
  "source": "osm"
 },
 {
  "name": "Elevators",
  "slug": "elevators-us-128",
  "lat": 19.4569,
  "lng": -154.84219,
  "region": "Hawaii",
  "country": "US",
  "break_type": "beach",
  "swan_enabled": false,
  "timezone": "America/Los_Angeles",
  "source": "osm"
 },
 {
  "name": "First Bay",
  "slug": "first-bay-us-129",
  "lat": 19.4573,
  "lng": -154.84309,
  "region": "Hawaii",
  "country": "US",
  "break_type": "beach",
  "swan_enabled": false,
  "timezone": "America/Los_Angeles",
  "source": "osm"
 },
 {
  "name": "Second Bay",
  "slug": "second-bay-us-130",
  "lat": 19.45615,
  "lng": -154.84369,
  "region": "Hawaii",
  "country": "US",
  "break_type": "beach",
  "swan_enabled": false,
  "timezone": "America/Los_Angeles",
  "source": "osm"
 },
 {
  "name": "Cave",
  "slug": "cave-pt-131",
  "lat": 38.99446,
  "lng": -9.42489,
  "region": "Lisbon",
  "country": "PT",
  "break_type": "beach",
  "swan_enabled": false,
  "timezone": "Europe/Lisbon",
  "source": "osm"
 },
 {
  "name": "Crazy Left",
  "slug": "crazy-left-pt-132",
  "lat": 38.99666,
  "lng": -9.42606,
  "region": "Lisbon",
  "country": "PT",
  "break_type": "beach",
  "swan_enabled": false,
  "timezone": "Europe/Lisbon",
  "source": "osm"
 },
 {
  "name": "Point Break",
  "slug": "point-break-it-133",
  "lat": 41.83333,
  "lng": 12.20391,
  "region": "Latium",
  "country": "IT",
  "break_type": "point",
  "swan_enabled": false,
  "timezone": "Europe/Paris",
  "source": "osm"
 },
 {
  "name": "Blue Ocean Ericeira Surf School & Rentals",
  "slug": "blue-ocean-ericeira-surf-school-rentals-pt-134",
  "lat": 38.98767,
  "lng": -9.41793,
  "region": "Lisbon",
  "country": "PT",
  "break_type": "beach",
  "swan_enabled": false,
  "timezone": "Europe/Lisbon",
  "source": "osm"
 },
 {
  "name": "Surf School",
  "slug": "surf-school-ie-135",
  "lat": 52.15879,
  "lng": -7.14053,
  "region": "Munster",
  "country": "IE",
  "break_type": "beach",
  "swan_enabled": false,
  "timezone": "Europe/Lisbon",
  "source": "osm"
 },
 {
  "name": "BeeKite Brasil Kitesurf Center",
  "slug": "beekite-brasil-kitesurf-center-br-136",
  "lat": -2.90776,
  "lng": -41.45061,
  "region": "Piaui",
  "country": "BR",
  "break_type": "beach",
  "swan_enabled": false,
  "timezone": "America/New_York",
  "source": "osm"
 },
 {
  "name": "Piry's Ding Repair",
  "slug": "piry-s-ding-repair-sv-137",
  "lat": 13.48583,
  "lng": -89.32383,
  "region": "La Libertad",
  "country": "SV",
  "break_type": "beach",
  "swan_enabled": false,
  "timezone": "America/New_York",
  "source": "osm"
 },
 {
  "name": "Shock-Wave",
  "slug": "shock-wave-es-138",
  "lat": 28.68253,
  "lng": -14.00935,
  "region": "Canary Islands",
  "country": "ES",
  "break_type": "beach",
  "swan_enabled": false,
  "timezone": "Europe/Lisbon",
  "source": "osm"
 },
 {
  "name": "Surfcentrum",
  "slug": "surfcentrum-nl-139",
  "lat": 52.3263,
  "lng": 5.57573,
  "region": "Gelderland",
  "country": "NL",
  "break_type": "beach",
  "swan_enabled": false,
  "timezone": "Europe/Paris",
  "source": "osm"
 },
 {
  "name": "Surf Shack",
  "slug": "surf-shack-mz-140",
  "lat": -23.85291,
  "lng": 35.54468,
  "region": "Inhambane",
  "country": "MZ",
  "break_type": "beach",
  "swan_enabled": false,
  "timezone": "Europe/Paris",
  "source": "osm"
 },
 {
  "name": "Cocopelli surf school",
  "slug": "cocopelli-surf-school-in-142",
  "lat": 14.55723,
  "lng": 74.30923,
  "region": "Karnataka",
  "country": "IN",
  "break_type": "beach",
  "swan_enabled": false,
  "timezone": "Asia/Karachi",
  "source": "osm"
 },
 {
  "name": "B!",
  "slug": "b-us-143",
  "lat": 36.96443,
  "lng": -122.04148,
  "region": "California",
  "country": "US",
  "break_type": "beach",
  "swan_enabled": false,
  "timezone": "America/Los_Angeles",
  "source": "osm"
 },
 {
  "name": "ProSurf Center Pore\u010d",
  "slug": "prosurf-center-pore-hr-144",
  "lat": 45.23982,
  "lng": 13.59694,
  "region": "Istarska",
  "country": "HR",
  "break_type": "beach",
  "swan_enabled": false,
  "timezone": "Europe/Paris",
  "source": "osm"
 },
 {
  "name": "Kitesurf Center",
  "slug": "kitesurf-center-co-145",
  "lat": 12.204,
  "lng": -72.15028,
  "region": "La Guajira",
  "country": "CO",
  "break_type": "beach",
  "swan_enabled": false,
  "timezone": "America/New_York",
  "source": "osm"
 },
 {
  "name": "Cold Hawaii Surf Camp",
  "slug": "cold-hawaii-surf-camp-dk-146",
  "lat": 57.0419,
  "lng": 8.48276,
  "region": "North Denmark",
  "country": "DK",
  "break_type": "beach",
  "swan_enabled": false,
  "timezone": "Europe/Paris",
  "source": "osm"
 },
 {
  "name": "Quivers Surf Pro",
  "slug": "quivers-surf-pro-es-148",
  "lat": 28.41815,
  "lng": -16.54278,
  "region": "Canary Islands",
  "country": "ES",
  "break_type": "beach",
  "swan_enabled": false,
  "timezone": "Europe/Lisbon",
  "source": "osm"
 },
 {
  "name": "Windsurf Station",
  "slug": "windsurf-station-hr-149",
  "lat": 44.78512,
  "lng": 13.91712,
  "region": "Istarska",
  "country": "HR",
  "break_type": "beach",
  "swan_enabled": false,
  "timezone": "Europe/Paris",
  "source": "osm"
 },
 {
  "name": "Beachclub Blankenberge",
  "slug": "beachclub-blankenberge-be-150",
  "lat": 51.32,
  "lng": 3.14088,
  "region": "Flanders",
  "country": "BE",
  "break_type": "beach",
  "swan_enabled": false,
  "timezone": "Europe/Lisbon",
  "source": "osm"
 },
 {
  "name": "Eoletto Kite & Windsurf, Lodging",
  "slug": "eoletto-kite-windsurf-lodging-co-151",
  "lat": 12.20653,
  "lng": -72.15688,
  "region": "La Guajira",
  "country": "CO",
  "break_type": "beach",
  "swan_enabled": false,
  "timezone": "America/New_York",
  "source": "osm"
 },
 {
  "name": "Uni Surf Team R\u00fcgen",
  "slug": "uni-surf-team-r-gen-de-152",
  "lat": 54.6272,
  "lng": 13.23105,
  "region": "Mecklenburg-Vorpommern",
  "country": "DE",
  "break_type": "beach",
  "swan_enabled": false,
  "timezone": "Europe/Paris",
  "source": "osm"
 },
 {
  "name": "Surf School",
  "slug": "surf-school-ie-153",
  "lat": 54.27067,
  "lng": -8.60883,
  "region": "Connaught",
  "country": "IE",
  "break_type": "beach",
  "swan_enabled": false,
  "timezone": "Europe/Lisbon",
  "source": "osm"
 },
 {
  "name": "Surf break",
  "slug": "surf-break-id-154",
  "lat": -8.70682,
  "lng": 115.43704,
  "region": "Bali",
  "country": "ID",
  "break_type": "beach",
  "swan_enabled": false,
  "timezone": "Asia/Jakarta",
  "source": "osm"
 },
 {
  "name": "Wyo Point",
  "slug": "wyo-point-ca-155",
  "lat": 48.99276,
  "lng": -125.59014,
  "region": "British Columbia",
  "country": "CA",
  "break_type": "point",
  "swan_enabled": false,
  "timezone": "America/Los_Angeles",
  "source": "osm"
 },
 {
  "name": "Pacific Surf Co.",
  "slug": "pacific-surf-co-ca-156",
  "lat": 49.15215,
  "lng": -125.90359,
  "region": "British Columbia",
  "country": "CA",
  "break_type": "beach",
  "swan_enabled": false,
  "timezone": "America/Los_Angeles",
  "source": "osm"
 },
 {
  "name": "Wya Point Surf Shop Cafe",
  "slug": "wya-point-surf-shop-cafe-ca-157",
  "lat": 48.99275,
  "lng": -125.59009,
  "region": "British Columbia",
  "country": "CA",
  "break_type": "point",
  "swan_enabled": false,
  "timezone": "America/Los_Angeles",
  "source": "osm"
 },
 {
  "name": "Bornholm Surf Shop",
  "slug": "bornholm-surf-shop-dk-158",
  "lat": 55.21284,
  "lng": 14.97074,
  "region": "Capital Region",
  "country": "DK",
  "break_type": "beach",
  "swan_enabled": false,
  "timezone": "Europe/Paris",
  "source": "osm"
 },
 {
  "name": "Long Beach Surf Shop",
  "slug": "long-beach-surf-shop-ca-159",
  "lat": 49.14995,
  "lng": -125.89616,
  "region": "British Columbia",
  "country": "CA",
  "break_type": "beach",
  "swan_enabled": false,
  "timezone": "America/Los_Angeles",
  "source": "osm"
 },
 {
  "name": "Long Beach Surf Shop",
  "slug": "long-beach-surf-shop-ca-160",
  "lat": 48.945,
  "lng": -125.56045,
  "region": "British Columbia",
  "country": "CA",
  "break_type": "beach",
  "swan_enabled": false,
  "timezone": "America/Los_Angeles",
  "source": "osm"
 },
 {
  "name": "Caparica Evolution Surf School",
  "slug": "caparica-evolution-surf-school-pt-161",
  "lat": 38.64854,
  "lng": -9.24389,
  "region": "Setubal",
  "country": "PT",
  "break_type": "beach",
  "swan_enabled": false,
  "timezone": "Europe/Lisbon",
  "source": "osm"
 },
 {
  "name": "The Pallet's",
  "slug": "the-pallet-s-my-162",
  "lat": 6.29469,
  "lng": 99.72447,
  "region": "Kedah",
  "country": "MY",
  "break_type": "beach",
  "swan_enabled": false,
  "timezone": "Asia/Jakarta",
  "source": "osm"
 },
 {
  "name": "Intersurf",
  "slug": "intersurf-nl-163",
  "lat": 53.03451,
  "lng": 5.6711,
  "region": "Friesland",
  "country": "NL",
  "break_type": "beach",
  "swan_enabled": false,
  "timezone": "Europe/Paris",
  "source": "osm"
 },
 {
  "name": "Poyo Surf Club",
  "slug": "poyo-surf-club-gp-164",
  "lat": 15.99989,
  "lng": -61.60338,
  "region": "Guadeloupe",
  "country": "GP",
  "break_type": "beach",
  "swan_enabled": false,
  "timezone": "America/New_York",
  "source": "osm"
 },
 {
  "name": "Crowd Surf",
  "slug": "crowd-surf-us-165",
  "lat": 21.27968,
  "lng": -157.82599,
  "region": "Hawaii",
  "country": "US",
  "break_type": "beach",
  "swan_enabled": false,
  "timezone": "America/Los_Angeles",
  "source": "osm"
 },
 {
  "name": "Fiji",
  "slug": "fiji-pr-166",
  "lat": 18.46925,
  "lng": -66.08979,
  "region": "San Juan",
  "country": "PR",
  "break_type": "beach",
  "swan_enabled": false,
  "timezone": "America/New_York",
  "source": "osm"
 },
 {
  "name": "La Ocho",
  "slug": "la-ocho-pr-167",
  "lat": 18.46927,
  "lng": -66.09221,
  "region": "San Juan",
  "country": "PR",
  "break_type": "beach",
  "swan_enabled": false,
  "timezone": "America/New_York",
  "source": "osm"
 },
 {
  "name": "Fat Lips Surfshop",
  "slug": "fat-lips-surfshop-ph-168",
  "lat": 9.79178,
  "lng": 126.16145,
  "region": "Caraga",
  "country": "PH",
  "break_type": "beach",
  "swan_enabled": false,
  "timezone": "Asia/Jakarta",
  "source": "osm"
 },
 {
  "name": "North Shore Surf - L\u00f8kken",
  "slug": "north-shore-surf-l-kken-dk-169",
  "lat": 57.37146,
  "lng": 9.70647,
  "region": "North Denmark",
  "country": "DK",
  "break_type": "beach",
  "swan_enabled": false,
  "timezone": "Europe/Paris",
  "source": "osm"
 },
 {
  "name": "Jamnesia",
  "slug": "jamnesia-jm-170",
  "lat": 17.94127,
  "lng": -76.68779,
  "region": "Saint Andrew",
  "country": "JM",
  "break_type": "beach",
  "swan_enabled": false,
  "timezone": "America/New_York",
  "source": "osm"
 },
 {
  "name": "Totora Surf School Suances",
  "slug": "totora-surf-school-suances-es-171",
  "lat": 43.43377,
  "lng": -4.04008,
  "region": "Cantabria",
  "country": "ES",
  "break_type": "beach",
  "swan_enabled": false,
  "timezone": "Europe/Lisbon",
  "source": "osm"
 },
 {
  "name": "Wave Surf Caf\u00e9",
  "slug": "wave-surf-caf-fr-172",
  "lat": 44.86315,
  "lng": -0.57402,
  "region": "Aquitaine",
  "country": "FR",
  "break_type": "beach",
  "swan_enabled": false,
  "timezone": "Europe/Lisbon",
  "source": "osm"
 },
 {
  "name": "Galeria Viva",
  "slug": "galeria-viva-br-173",
  "lat": -13.00454,
  "lng": -38.53304,
  "region": "Bahia",
  "country": "BR",
  "break_type": "beach",
  "swan_enabled": false,
  "timezone": "America/New_York",
  "source": "osm"
 },
 {
  "name": "Surfing",
  "slug": "surfing-th-174",
  "lat": 7.81666,
  "lng": 98.29967,
  "region": "Phuket",
  "country": "TH",
  "break_type": "beach",
  "swan_enabled": false,
  "timezone": "Asia/Jakarta",
  "source": "osm"
 },
 {
  "name": "Surf camp",
  "slug": "surf-camp-sn-176",
  "lat": 14.75569,
  "lng": -17.51584,
  "region": "Dakar",
  "country": "SN",
  "break_type": "beach",
  "swan_enabled": false,
  "timezone": "Europe/Lisbon",
  "source": "osm"
 },
 {
  "name": "Kiteboarding Asia",
  "slug": "kiteboarding-asia-th-177",
  "lat": 9.69734,
  "lng": 100.02563,
  "region": "Surat Thani",
  "country": "TH",
  "break_type": "beach",
  "swan_enabled": false,
  "timezone": "Asia/Jakarta",
  "source": "osm"
 },
 {
  "name": "Loa",
  "slug": "loa-ar-178",
  "lat": -36.53097,
  "lng": -56.68881,
  "region": "Buenos Aires",
  "country": "AR",
  "break_type": "beach",
  "swan_enabled": false,
  "timezone": "America/New_York",
  "source": "osm"
 },
 {
  "name": "Algarve Surf School",
  "slug": "algarve-surf-school-pt-179",
  "lat": 37.00803,
  "lng": -8.94009,
  "region": "Faro",
  "country": "PT",
  "break_type": "beach",
  "swan_enabled": false,
  "timezone": "Europe/Lisbon",
  "source": "osm"
 },
 {
  "name": "Windsurf Pals",
  "slug": "windsurf-pals-es-180",
  "lat": 42.0003,
  "lng": 3.19662,
  "region": "Catalonia",
  "country": "ES",
  "break_type": "beach",
  "swan_enabled": false,
  "timezone": "Europe/Lisbon",
  "source": "osm"
 },
 {
  "name": "San Agustinillo",
  "slug": "san-agustinillo-mx-181",
  "lat": 15.66441,
  "lng": -96.54186,
  "region": "Oaxaca",
  "country": "MX",
  "break_type": "beach",
  "swan_enabled": false,
  "timezone": "America/New_York",
  "source": "osm"
 },
 {
  "name": "Surf spot - Sealinks",
  "slug": "surf-spot-sealinks-vn-182",
  "lat": 10.93683,
  "lng": 108.1839,
  "region": "Binh Thuan",
  "country": "VN",
  "break_type": "beach",
  "swan_enabled": false,
  "timezone": "Asia/Jakarta",
  "source": "osm"
 },
 {
  "name": "Aqia surf",
  "slug": "aqia-surf-id-183",
  "lat": -8.87267,
  "lng": 116.16203,
  "region": "West Nusa Tenggara",
  "country": "ID",
  "break_type": "beach",
  "swan_enabled": false,
  "timezone": "Asia/Jakarta",
  "source": "osm"
 },
 {
  "name": "Aqia surf",
  "slug": "aqia-surf-id-184",
  "lat": -8.87238,
  "lng": 116.16196,
  "region": "West Nusa Tenggara",
  "country": "ID",
  "break_type": "beach",
  "swan_enabled": false,
  "timezone": "Asia/Jakarta",
  "source": "osm"
 },
 {
  "name": "Waira",
  "slug": "waira-es-185",
  "lat": 42.15372,
  "lng": -8.82541,
  "region": "Galicia",
  "country": "ES",
  "break_type": "beach",
  "swan_enabled": false,
  "timezone": "Europe/Lisbon",
  "source": "osm"
 },
 {
  "name": "Surfari Surf Shop",
  "slug": "surfari-surf-shop-ch-186",
  "lat": 47.37396,
  "lng": 8.53038,
  "region": "Zurich",
  "country": "CH",
  "break_type": "beach",
  "swan_enabled": false,
  "timezone": "Europe/Paris",
  "source": "osm"
 },
 {
  "name": "Spot de Surf",
  "slug": "spot-de-surf-pt-187",
  "lat": 39.40034,
  "lng": -9.27766,
  "region": "Leiria",
  "country": "PT",
  "break_type": "beach",
  "swan_enabled": false,
  "timezone": "Europe/Lisbon",
  "source": "osm"
 },
 {
  "name": "Surf'Lab Location de v\u00e9lo et surf",
  "slug": "surf-lab-location-de-v-lo-et-surf-fr-188",
  "lat": 43.59583,
  "lng": -1.46355,
  "region": "Aquitaine",
  "country": "FR",
  "break_type": "beach",
  "swan_enabled": false,
  "timezone": "Europe/Lisbon",
  "source": "osm"
 },
 {
  "name": "Bay Beach Hire",
  "slug": "bay-beach-hire-au-189",
  "lat": -28.64154,
  "lng": 153.61418,
  "region": "New South Wales",
  "country": "AU",
  "break_type": "beach",
  "swan_enabled": false,
  "timezone": "Pacific/Auckland",
  "source": "osm"
 },
 {
  "name": "Star Surf & Skate",
  "slug": "star-surf-skate-au-190",
  "lat": -32.53371,
  "lng": 115.7191,
  "region": "Western Australia",
  "country": "AU",
  "break_type": "beach",
  "swan_enabled": false,
  "timezone": "Asia/Jakarta",
  "source": "osm"
 },
 {
  "name": "Nauru",
  "slug": "nauru-ar-191",
  "lat": -34.57715,
  "lng": -58.48171,
  "region": "Buenos Aires F.D.",
  "country": "AR",
  "break_type": "beach",
  "swan_enabled": false,
  "timezone": "America/New_York",
  "source": "osm"
 },
 {
  "name": "Spot de surf",
  "slug": "spot-de-surf-it-192",
  "lat": 40.49464,
  "lng": 8.36958,
  "region": "Sardinia",
  "country": "IT",
  "break_type": "beach",
  "swan_enabled": false,
  "timezone": "Europe/Paris",
  "source": "osm"
 },